storeId,country,store number,address,zip code,phone,lat,lon
G001,Bulgaria,1,"ул. Цар Симеон Велики 20А,Видин,Видин",3700,+35994910992,43.987068,22.874984
G044,Bulgaria,100,"ул. Васил Левски 10,Горна Оряховица,Велико Търново",5100,+359883764100,43.132554,25.684168
G046,Bulgaria,102,"кв.Запад 3, бул. Сюрен 29,Търговище,Търговище",7700,+359883764102,43.2417,26.557771
G047,Bulgaria,103,"ул. д-р Атанас Москов 20,София,София - град",1715,+359882466461,42.63588,23.37381
G048,Bulgaria,104,"бул. Добруджа 4,Добрич,Добрич",9300,+359883764104,43.5684968,27.8475446
G049,Bulgaria,105,"м.Декилиташ ГП-I-6при км/195+860/дясно№1 обект,Пирдоп,София област",2070,+359883764105,42.703625,24.163323
G04A,Bulgaria,106,"yл. Академик Ангел Балевски 1,Троян,Ловеч",5600,+359883764106,42.892585,24.715473
G04B,Bulgaria,107,"ул.Шипка 6,Пловдив,Пловдив",4023,+359883764107,42.1341016,24.7938807
G04C,Bulgaria,108,"ул. Алабин 1,София,София - град",1000,+359882466408,42.6950234,23.3158009
G04D,Bulgaria,109,"ул. Никола Д. Петков 41,Севлиево,Габрово",5400,+359883764109,43.022059,25.094292
G00B,Bulgaria,11,"бул. Владислав Варненчик 61,Варна,Варна",9000,+359882466411,43.211729,27.906083
G04E,Bulgaria,110,"ул. Симеон Русков 1A,Козлодуй,Враца",3320,+359883764110,43.77638,23.733137
G04F,Bulgaria,111,"yл. Васил Левски 105,Пловдив,Пловдив",4000,+359883764111,42.173015,24.741959
G04G,Bulgaria,112,"yл. Димчо Дебелянов 10,Пазарджик,Пазарджик",4400,+359883764112,42.1828056,24.3445555
G04H,Bulgaria,113,"бул.Георги Данчев 26,Сливен,Сливен",8800,+359883764113,42.6825037,26.3410361
G04I,Bulgaria,114,"ул. Акад.Петър Динеков 1,София,София - град",1415,+359883764114,42.6396721,23.3112271
G04J,Bulgaria,115,"ул.Белият камък 24,Смолян,Смолян",4700,+359883764115,41.571722,24.716694
G04K,Bulgaria,116,"ул. Гоце Делчев 53 Б,Разлог,Благоевград",2760,+359883764116,41.879252,23.472373
G04L,Bulgaria,117,"бул.Г.С.Раковски 28 А,Хасково,Хасково",6300,+359883764117,41.9405529,25.5558516
G04M,Bulgaria,118,"ул.Проф. д-р Иван Странски 20,София,София - град",1700,+359883764118,42.641824,23.336693
G04N,Bulgaria,119,"бул. Черни връх 100,София,София - град",1407,+35924225491,42.657918,23.315949
G00C,Bulgaria,12,"бул. Цар Освободител 22,София,София - град",1000,+35924896992,42.693113,23.334296
G050,Bulgaria,120,"ул. Захари Зограф 159,Перник,Перник",2300,+359883764120,42.602154,23.050292
G051,Bulgaria,121,"ул.Княз Борис I 104 Б,Поморие,Бургас",8200,+359883764121,42.5666288,27.622027
G052,Bulgaria,122,"ул. Иван Вазов 30,Дупница,Кюстендил",2600,+359883764122,42.26731,23.113311
G053,Bulgaria,123,"М.Увата 214.4,Хасково,Хасково",6300,+359883764123,41.97048,25.5598
G054,Bulgaria,124,"ул. Боян Дановски 13,София,София - град",1797,+359883764124,42.664645,23.362079
G055,Bulgaria,125,"ул. Генерал Заимов 32,Карлово,Пловдив",4300,+359883764125,42.63402,24.80113
G056,Bulgaria,126,"бул. Цар Борис III 272,София,София - град",1000,+359883764126,42.660244,23.245258
G057,Bulgaria,127,"бул.Витоша 25,Елин Пелин,София област",2100,+359883764127,42.656841,23.590731
G058,Bulgaria,128,"Ул. Васил Левски 20,Асеновград,Пловдив",4230,+359883764128,42.0137,24.8696
G059,Bulgaria,129,"ул. Чатал тепе 2,Несебър,Бургас",8230,+359883764129,42.652932,27.671625
G00D,Bulgaria,13,"жк. Сторгозия, ул. Цар Самуил 81A,Плевен,Плевен",5800,+35964910992,43.424017,24.5965
G05A,Bulgaria,130,"ж.к. Света Троица бл. 318Б вх. А,София,София - град",1309,+359883764130,42.7062844,23.2942627
G05B,Bulgaria,131,"ул. Македония 30,Сандански,Благоевград",2800,+359883764131,41.5635449,23.2795459
G05C,Bulgaria,132,"ж.к. Изгрев бл. 207,Бургас,Бургас",8008,+359883764132,42.527283,27.453636
G05D,Bulgaria,133,"бул. Цар Освободител 33,Ботевград,София област",2140,+359883764133,42.91086,23.803285
G05E,Bulgaria,134,"Кв. Братя Миладинови Бл. 118,Бургас,Бургас",8000,+359883764134,42.50462,27.47301
G05F,Bulgaria,135,"кв. Лъджене, бул. Хан Аспарух 2,Велинград,Пазарджик",4600,+359883764135,42.031401,24.004267
G05G,Bulgaria,136,"бул. 25-ти Септември 70,Добрич,Добрич",9300,+359883764136,43.579667,27.831616
G05H,Bulgaria,137,"бул. Панония 43,Видин,Видин",3702,+359883764137,44.0008739,22.8686737
G05I,Bulgaria,138,"ул. Aлександър Стамболийски 30,Ямбол,Ямбол",8600,+359883764138,42.4851623,26.5097984
G05J,Bulgaria,139,"ул. Арсений Костенцев 7,Благоевград,Благоевград",2700,+359883764139,42.021501,23.0993792
G00E,Bulgaria,14,"бул. Ситняково  48,София,София - град",1505,+35924890782,42.691308,23.353779
G05K,Bulgaria,140,"бул. Арсеналски 2,София,София - град",1421,+359883764140,42.6788667,23.3207827
G05L,Bulgaria,141,"ул. Кукленско шосе 8Б,Пловдив,Пловдив",4004,+359883764141,42.1225,24.75722
G05M,Bulgaria,142,"ул.Станционна 13,Габрово,Габрово",5300,+359883764142,42.883595,25.316577
G05N,Bulgaria,143,"бул. Никола Мушанов 149А,София,София - град",1330,+359883764146,42.688452,23.278245
G060,Bulgaria,144,"бул. Никола Петков 48,Стара Загора,Стара Загора",6000,+359883764144,42.42702,25.65987
G061,Bulgaria,145,"бул. Цариградско шосе 115,София,София - град",1784,+359883764145,42.6611437,23.382546
G063,Bulgaria,147,"ул.Гюешевско шосе 5А,Кюстендил,Кюстендил",2500,+359883764147,42.274023,22.668753
G00F,Bulgaria,15,"ул. Велики Преслав 28,Шумен,Шумен",9700,+35954910992,43.267331,26.93603
G00G,Bulgaria,16,"бул. Андрей Сахаров 2,Варна,Варна",9000,+35952910816,43.217718,27.897978
G00J,Bulgaria,19,"пл. Общински 3,Хасково,Хасково",6300,+35938510892,41.931449,25.556914
G002,Bulgaria,2,"бул. Менделеев 2Б,Пловдив,Пловдив",4000,+35932510992,42.1300128,24.7695638
G00K,Bulgaria,20,"ул. Капитан Райчо 52,Пловдив,Пловдив",4000,+35932512311,42.141824,24.754515
G010,Bulgaria,24,"ул. Магистрална 17,Велико Търново,Велико Търново",5000,+35962510892,43.07302,25.61566
G011,Bulgaria,25,"ж.к.Младост 4, Бизнес парк, сгр. 11,София,София - град",1766,+35924218992,42.626752,23.375645
G014,Bulgaria,28,"ул. Тодорини кукли 4,София,София - град",1505,+35924218996,42.702062,23.354596
G015,Bulgaria,29,"ул. Булаир 2А,Кърджали,Кърджали",6600,+35936154392,41.638755,25.369921
G016,Bulgaria,30,"бул. Възкресение 132А,София,София - град",1330,+35924012992,42.696071,23.286574
G017,Bulgaria,31,"площад Петко Славейков 2А,София,София - град",1000,+35924218988,42.692222,23.323781
G018,Bulgaria,32,"ул. Коста Лулчев 52,София,София - град",1574,+35924218507,42.67958,23.367877
G019,Bulgaria,33,"бул. Ботеврадско шосе 525,София,София - град",1839,+35924218521,42.709435,23.458434
G01B,Bulgaria,35,"ул. Градски пазар 1,Пазарджик,Пазарджик",4400,+35934910397,42.191923,24.335355
G01D,Bulgaria,37,"пл. България 1,София,София - град",1414,+35924217307,42.68507,23.319018
G01E,Bulgaria,38,"бул. Цветан Лазаров с/у бл. 206,София,София - град",1582,+35924218828,42.655215,23.399165
G01F,Bulgaria,39,"ул. Пиротска 5,София,София - град",1301,+35924225345,42.699248,23.321368
G004,Bulgaria,4,"ул.Транспортна 31,Бургас,Бургас",8008,+359882466404,42.530362,27.457988
G01G,Bulgaria,40,"ул. Цар Освободител 1Б,Сливен,Сливен",8800,+359882466440,42.681071,26.314418
G01H,Bulgaria,41,"ул. Васил Левски 4,Пловдив,Пловдив",4000,+35932512492,42.15685,24.743829
G01L,Bulgaria,45,"бул. Липник 121Д,Русе,Русе",7000,+35982511602,43.853222,25.990241
G01M,Bulgaria,46,"ул. Николай Хайтов 2,София,София - град",1113,+35924225422,42.671073,23.352031
G01N,Bulgaria,47,"пл. Иван Миндиликов 1,Плевен,Плевен",5800,+35964910590,43.419949,24.614088
G021,Bulgaria,49,"ул. Йордан Йосифов 6,София,София - град",1700,+35924225426,42.653832,23.345553
G005,Bulgaria,5,"ул. Гено Чолаков 1,Силистра,Силистра",7500,+35986510992,44.120744,27.260642
G022,Bulgaria,50,"бул. Сливница 24,Варна,Варна",9000,+359882466450,43.206939,27.918169
G023,Bulgaria,51,"бул. Царица Йоанна 15,София,София - град",1336,+35924225325,42.710672,23.271004
G024,Bulgaria,52,"М. Рудник, Районен център сгр. 421,Бургас,Бургас",8009,+359882466452,42.458199,27.414536
G027,Bulgaria,55,"Христо Ботев 1,Велико Търново,Велико Търново",5000,+35962526102,43.08292,25.633175
G02A,Bulgaria,58,"ул. Райко Даскалов 8,Пловдив,Пловдив",4000,+35932307890,42.148979,24.748029
G02B,Bulgaria,59,"ул. Търговска 45,Ловеч,Ловеч",5500,+35968588573,43.13564,24.717005
G006,Bulgaria,6,"ул. Цар Симеон Велики 132,Стара Загора,Стара Загора",6000,+35942910992,42.425832,25.634816
G02E,Bulgaria,62,"бул. Джавахарлал Неру 28,София,София - град",1324,+35924242035,42.714804,23.254104
G02G,Bulgaria,64,"бул. Ломско шосе 34,София,София - град",1220,+35924475979,42.726392,23.302966
G02H,Bulgaria,65,"ул. Методи Андонов 4,София,София - град",1784,+35924475995,42.651918,23.373155
G02I,Bulgaria,66,"Васил Левски 16,Бургас,Бургас",8000,+35956706471,42.4987222,27.470333
G02J,Bulgaria,67,"Сан Стефано 22,София,София - град",1504,+35924244597,42.691976,23.338196
G007,Bulgaria,7,"бул. Мария Луиза 75,София,София - град",1202,+35924211992,42.703632,23.323374
G02M,Bulgaria,70,"Монтевидео 45,София,София - град",1618,+35924516177,42.686651,23.25511
G02N,Bulgaria,71,"бул. Княз Александър Дондуков 32,София,София - град",1000,+35924478792,42.698116,23.330821
G030,Bulgaria,72,"ул. ген. Никола Жеков 14,София,София - град",1231,+35924510150,42.733857,23.309442
G031,Bulgaria,73,"бул. България 17,Разград,Разград",7200,+35984587079,43.524754,26.523684
G033,Bulgaria,75,"ул. Студентска 1,Варна,Варна",9000,+35952813666,43.224357,27.930097
G034,Bulgaria,76,"Константин и Фружин 481,Варна,Варна",9023,+35952816199,43.2468878,27.8470297
G035,Bulgaria,77,"ул. Хубча 2,София,София - град",1618,+35924514761,42.677181,23.286495
G036,Bulgaria,78,"Околовръстен път 214,София,София - град",1434,+35924512975,42.6247641,23.3524717
G037,Bulgaria,79,"Перущица 8,Пловдив,Пловдив",4002,+359882466479,42.141632,24.719108
G038,Bulgaria,80,"бул. Александър Стамболийски 101,София,София - град",1303,+35924885794,42.698548,23.308559
G039,Bulgaria,81,"ул.Македония 95,Пловдив,Пловдив",4004,+359882466481,42.122722,24.741083
G03A,Bulgaria,82,"бул.България 115А,Пловдив,Пловдив",4003,+359882466482,42.157145,24.72833
G03B,Bulgaria,83,"ул. Александровска 73,Русе,Русе",7000,+359882466483,43.8508264,25.9529544
G03D,Bulgaria,85,"ул.Тодор Александров 30,Бургас,Бургас",8001,+359882466485,42.503357,27.460163
G03E,Bulgaria,86,"бул. Сливница 185,Варна,Варна",9009,+359882466486,43.227998,27.8749
G03F,Bulgaria,87,"ул. Славянска 34,Костинброд,София област",2230,+359882466487,42.808466,23.21335
G03G,Bulgaria,88,"бул. Цариградско шосе бл.10,София,София - град",1113,+359882466488,42.675103,23.358261
G03H,Bulgaria,89,"жк. Чайка бл.202 бл. 202,Варна,Варна",9010,+359882466489,43.214658,27.941244
G009,Bulgaria,9,"ул. Никола Войводов 9/2,Враца,Враца",3000,+359882466409,43.20541,23.553936
G03I,Bulgaria,90,"бул. Осми приморски полк 115,Варна,Варна",9010,+359882466490,43.214414,27.925609
G03J,Bulgaria,91,"ул.Тодор Каблешков 30,София,София - град",1618,+359882466491,42.659649,23.30087
G03K,Bulgaria,92,"бул.Братя Бъкстон 30,София,София - град",1618,+359882466492,42.669265,23.276474
G03L,Bulgaria,93,"бул. Цар Симеон Велики 37,Шумен,Шумен",9700,+359882466493,43.274627,26.942746
G03M,Bulgaria,94,"ул.Панаирски ливади 1,Гоце Делчев,Благоевград",2900,+359882466494,41.575548,23.74264
G03N,Bulgaria,95,"пл. Севтополис 1,Казанлък,Стара Загора",6100,+359882466495,42.618806,25.392819
G040,Bulgaria,96,"ул. Битоля 37,Ямбол,Ямбол",8600,+359882466496,42.475666,26.512375
G041,Bulgaria,97,"бул.Трети март 137Б,Монтана,Монтана",3400,+359882466497,43.418479,23.226785
G042,Bulgaria,98,"бул. Джеймс Баучер 103,София,София - град",1407,+359882466498,42.670028,23.314139
G043,Bulgaria,99,"бул. България 69,София,София - град",1404,+359882466499,42.664148,23.288553
U048,Hungry,104,"Kossuth utca 10-16.,Hajdúböszörmény,HAJDU-BIHAR",4220,+36304124098,47.6708754,21.5093366
U049,Hungry,105,"Fő utca 6-10.,Csongrád,CSONGRÁD",6640,+36304123968,46.71048,20.14869
U050,Hungry,120,"Péterfia utca 18.,Debrecen,HAJDU-BIHAR",4026,+36304012819,47.5348922,21.625441
U05A,Hungry,130,"Andrássy út 37-43.,Békéscsaba,BÉKÉS",5600,+36304008184,46.67691,21.09078
U05D,Hungry,133,"Bocskai út 1.,Püspökladány,HAJDU-BIHAR",4150,+36307817240,47.31731,21.11798
U05I,Hungry,138,"Bajcsy-Zsilinszky utca 23.,Mátészalka,SZABOLCS",4700,+36304010456,47.95483,22.32395
U05N,Hungry,143,"Kárász utca 8.,Szeged,CSONGRÁD",6720,+36304012717,46.25172,20.14721
U061,Hungry,145,"Bajcsy-Zsilinszky utca 2-4.,Miskolc,BORSOD",3530,+36303023078,48.1027787,20.7923522
U06N,Hungry,167,"Kossuth tér 2.,Mezőberény,BÉKÉS",5650,+36304124161,46.82395,21.0285
U07M,Hungry,190,"Pazonyi út 39/a.,Nyíregyháza,SZABOLCS",4400,+36308869711,47.96911,21.73934
U090,Hungry,216,"Kétegyházi út 6660/1 hrs,Gyula,BÉKÉS",5700,+36304123595,46.64027,21.26149
U095,Hungry,221,"Szentgyörgyfalvi u. 9.,Debrecen,HAJDU-BIHAR",4225,+36304125821,47.5977128,21.5787777
U09F,Hungry,231,"Vasvári tér 8.,Hajdúdorog,HAJDU-BIHAR",4087,+36304017807,47.81583,21.50028
U09L,Hungry,237,"Szabadkai út 7.,Szeged,CSONGRÁD",6725,+36304125816,46.2436819,20.119716
U09M,Hungry,238,"Mátyás király út 3.,Tiszaújváros,BORSOD",3580,+36304121883,47.9303066,21.0303967
U0A5,Hungry,245,"Nagy Imre tér 1.,Nyíregyháza,SZABOLCS",4400,+36304102946,47.9579157,21.7177754
U0AA,Hungry,250,"Kazinczy Ferenc út 156.,Sátoraljaújhely,BORSOD",3980,+36304015009,48.41353,21.6488
U0AD,Hungry,253,"Törvényház utca 4.,Eger,HEVES",3300,+36304107399,47.9007057,20.3680731
U0AE,Hungry,254,"Kishatár utca 9.,Debrecen,HAJDU-BIHAR",4031,+36303018012,47.54322,21.58129
U0AI,Hungry,258,"Fő tér 15,Újfehértó,SZABOLCS",4244,+36304024190,47.79863,21.68218
U0BD,Hungry,277,"Csapó utca 30.,Debrecen,HAJDU-BIHAR",4024,+36304102437,47.5326399,21.628941
U0C4,Hungry,292,"Kossuth utca 14.,Szentes,CSONGRÁD",6600,+36304024130,46.65173,20.26103
U0C6,Hungry,294,"Mátyás király út 29.,Szolnok,JÁSZ",5000,+36308869719,47.1802771,20.182412
U0C7,Hungry,295,"Gyár utca 40.,Szerencs,BORSOD",3900,+36304015077,48.15356,21.19246
U0CG,Hungry,304,"Londoni körút 3.,Szeged,CSONGRÁD",6724,+36308869691,46.2547691,20.1377251
U0D5,Hungry,317,"Kaszap utca 20.,Hódmezővásárhely,CSONGRÁD",6800,+36304007455,46.4099,20.32195
U0D8,Hungry,320,"Dobó tér 1.,Eger,HEVES",3300,+36304111491,47.90275,20.37604
U0DA,Hungry,322,"Széchenyi tér 21-23.,Makó,CSONGRÁD",6900,+36304109414,46.21471,20.4773
U0EA,Hungry,346,"Szarvasi út 68/2.,Békéscsaba,BÉKÉS",5600,+36304125062,46.6806683,21.071252
U0ED,Hungry,349,"Szegfű utca 75.,Nyíregyháza,SZABOLCS",4400,+36304020217,47.955263,21.732125
U0EL,Hungry,357,"Andrássy Gyula utca 32.,Miskolc,BORSOD",3530,+36304124139,48.1021476,20.7312838
U0F4,Hungry,364,"Kishegyesi út 1-11.,Debrecen,HAJDU-BIHAR",4031,+36303023765,47.5306476,21.6077487
U0F8,Hungry,368,"Szentpéteri kapu 103.,Miskolc,BORSOD",3526,+36304015159,48.1260498,20.7828295
U0FG,Hungry,376,"József Attila utca 87.,Miskolc,BORSOD",3527,+36304124951,48.1085373,20.8361739
U0FH,Hungry,377,"MÁTYÁS KIRÁLY ÚT 60-64.,Mezőkövesd,BORSOD",3400,+36304125514,47.8077253,20.5662867
U01E,Hungry,38,"Sas utca 1.,Eger,HEVES",3300,+36304023978,47.88991,20.38116
U0FL,Hungry,381,"Kabai útfél HRSZ.0228,Hajdúszoboszló,HAJDU-BIHAR",4200,+36303022528,47.4337163,21.3767736
U0H5,Hungry,413,"CIFRAKAPU U. 164.,Eger,HEVES",3300,+36304124376,47.9221603,20.370855
U0H6,Hungry,414,"HADAK ÚTJA 11.,Kazincbarcika,BORSOD",3700,+36303061915,48.259131,20.6208691
U0HD,Hungry,421,"Földvári út 349/110 hr,Martfű,JÁSZ",5435,+36304796722,47.01604,20.28973
U0I8,Hungry,440,"Kossuth Lajos utca 41.,Szarvas,BÉKÉS",5540,+36304111990,46.8609046,20.5588067
U0IE,Hungry,446,"Sánc  utca 10.,Orosháza,BÉKÉS",5900,+36304012365,46.5493,20.6501
U0IK,Hungry,452,"Rókusi krt. 42-64.,Szeged,CSONGRÁD",6724,+36304515790,46.2688,20.1393
U0J2,Hungry,458,"Sárli u. 1.,Ózd,BORSOD",3600,+36304111831,48.2200906,20.2787507
U0J3,Hungry,459,"Mésztelep utca 1/A.,Miskolc,BORSOD",3508,+36304124837,48.07327,20.77839
U0J8,Hungry,464,"Ady Endre út 15.,Szolnok,JÁSZ",5000,+36304026614,47.1777015,20.1933998
U02E,Hungry,62,"56-osok tere 6/a.,Debrecen,HAJDU-BIHAR",4032,+36304123852,47.54765,21.61126
U02L,Hungry,69,"Angyalföld tér 17.,Debrecen,HAJDU-BIHAR",4031,+36304124010,47.52289,21.60405
M00A,North Macedonia,10,"ул. Народен Фронт 23,Скопје,Скопски",1000,+38923201290,41.99348,21.4151384
M00C,North Macedonia,12,"ул. Народни Херои 12,Скопје,Скопски",1000,+38922749284,41.9772724,21.4436485
M00D,North Macedonia,13,"ул. Маршал Тито 1,Куманово,Североисточен",1300,+38931473309,42.13615,21.7186016
M00F,North Macedonia,15,"ул. Никола Тесла 18,Битола,Пелагониски",7000,+38947222968,41.0306952,21.3372984
M00H,North Macedonia,17,"Бул. Македонско-Косовска Бригада 67,Скопје,Скопски",1000,+38922630370,42.0247024,21.4287716
M00J,North Macedonia,19,"Бул. Гоце Делчев 42,Гостивар,Полошки",1230,+38942361130,41.7964975,20.9133952
M002,North Macedonia,2,"Кеј 13-ти ноември,Скопје,Скопски",1000,+38923213604,41.9949509,21.43373
M00L,North Macedonia,21,"ул. Беласица 2,Скопје,Скопски",1000,+38923144005,41.9977867,21.4512593
M00M,North Macedonia,22,"ул. Маршал Тито 1,Струга,Југозападен",6330,+38946440111,41.177018,20.672477
M00N,North Macedonia,23,"ул. Д.р Слободан Јовановски 2,Штип,Источен",2000,+38932440400,41.7438209,22.1870315
M010,North Macedonia,24,"Бул. Србија 31a,Скопје,Скопски",1000,+38922459550,41.9809,21.468
M011,North Macedonia,25,"ул. Перо Наков 108,Скопје,Скопски",1000,+38922580260,41.99615,21.47796
M012,North Macedonia,26,"ул. Илинденска 1Г,Битола,Скопски",7000,+38947277810,41.03886,21.34609
M013,North Macedonia,27,"ул. Јордан Мијалков 37,Скопје,Скопски",1000,+38923227019,41.9908,21.4293
M014,North Macedonia,28,"ул. Ѓорче Петров 22,Скопје,Скопски",1000,+38922045422,42.0077,21.365
M015,North Macedonia,29,"ул. Алексо Демниевски Бауман 53,Велес,Вардарски",1400,+38943239080,41.7235,21.768
M003,North Macedonia,3,"ул. Љубљанска 4,Скопје,Скопски",1000,+38923067250,42.0044227,21.3916976
M016,North Macedonia,30,"ул. 15-ти Корпус 1Б,Охрид,Југозападен",6000,+38946284584,41.1243,20.8125
M018,North Macedonia,32,"ул. Братство Единство 63,Струмица,Југоисточен",2400,+38934340045,41.4431,22.648
M004,North Macedonia,4,"Бул. Крсте Мисирков 61,Скопје,Скопски",1000,+38923118520,42.0009209,21.43974
M005,North Macedonia,5,"Бул. Кочо Рацин 1,Скопје,Скопски",1000,+38923118715,41.9931284,21.4421115
M006,North Macedonia,6,"Бул. Јане Сандански 71a,Скопје,Скопски",1000,+38922464724,41.9858836,21.4662524
M007,North Macedonia,7,"ул. Скопски Пат 8,Тетово,Полошки",1200,+38944349469,42.00417,20.9894924
M008,North Macedonia,8,"ул. Митрополит Теодосиј Гологанов 74,Скопје,Скопски",1000,+38923094996,41.99661,21.4063824
W00D,Poland,13,"ul. Lwowska 53,Tarnów,Małopolskie",33-100,+48146400990,50.0139412,21.000705
W00M,Poland,22,"os. Na Lotnisku 3,Kraków,Małopolskie",31-801,+48126660130,50.0866086,20.0187072
W012,Poland,26,"ul. T. Śliwiaka 38,Kraków,Małopolskie",30-797,+48126660580,50.0367619,20.0508147
W014,Poland,28,"ul. Tarnowska 133,Nowy Sącz,Małopolskie",33-300,+48183500670,49.6512789,20.6896557
W015,Poland,29,"al. Jana Pawła II 29,Tarnów,Małopolskie",33-100,+48146400980,50.0344547,21.0138969
W018,Poland,32,"Kardynała Stefana Wyszyńskiego 9,Ropczyce,Podkarpackie",39-100,+48172831900,50.0548425,21.6103677
W01G,Poland,40,"ul. T. Kościuszki 50,Limanowa,Małopolskie",34-600,+48183500690,49.7002359,20.4249279
W022,Poland,50,"ul. Starowiślna 8,Warszawa,Mazowieckie",03-193,+48225808730,52.3014435,20.9928171
W02A,Poland,58,"ul. Gen. W. Sikorskiego 53,Nowy Targ,Małopolskie",34-400,+48183500490,49.4765128,20.03631
W02F,Poland,63,"ul. Łopuszańska 22,Warszawa,Mazowieckie",02-220,+48225808280,52.1919329,20.9512019
W02G,Poland,64,"ul. Puławska 56A,Mysiadło (Warszawa),Mazowieckie",05-500,+48225808140,52.1029221,21.0201824
W030,Poland,72,"ul. Dojazdowa 7c,Nowy Sącz,Małopolskie",33-300,+48183500480,49.633226,20.6965762
W031,Poland,73,"ul. Głębocka 15,Warszawa,Mazowieckie",03-287,+48226604630,52.302529,21.0586647
W032,Poland,74,"ul. Prymasa Tysiąclecia 7c,Ciechanów,Mazowieckie",06-400,+48616007230,52.8918581,20.6178842
W036,Poland,78,"Zgrupowania AK Kampinos 15,Warszawa,Mazowieckie",01-943,+48226006610,52.2956952,20.9305091
W03E,Poland,86,"ul. Geodetów 2a,Wołomin,Mazowieckie",05-200,+48223335770,52.3579044,21.2571753
W03F,Poland,87,"ul. Czesława Liska 1,Skierniewice,Mazowieckie",96-100,+48464444130,51.9725366,20.1467484
R045,Romenia,101,"Bd. Tudor Vladimirescu FN,Iaşi,Iasi",700291,+40374772101,47.155134,27.605706
R046,Romenia,102,"Calea Unirii 22,Suceava,Suceava",720018,+40374772102,47.659369,26.271191
R047,Romenia,103,"Bazaltului 2,Braşov,Brasov",500053,+40374772103,45.657322,25.561289
R048,Romenia,104,"Şoseaua Ştefan cel Mare 1-3,Bucureşti,Bucuresti",011736,+40374772104,44.453762,26.098347
R049,Romenia,105,"Blvd.Alexandru Lapusneanu 116 C,Constanţa,Constanta",900419,+40374772105,44.203328,28.631656
R04B,Romenia,107,"Fabricii 7,Cluj-Napoca,Cluj",400620,+40374772107,46.782425,23.612815
R04D,Romenia,109,"Ziduri Moşi 23,Bucureşti,Bucuresti",021203,+40374772109,44.452408,26.129821
R04E,Romenia,110,"Barajului 15,Tulcea,Tulcea",820222,+40374772110,45.165905,28.785444
R04F,Romenia,111,"Blvd. Nicolae Balcescu 46,Câmpina,Prahova",105600,+40374772111,45.115612,25.745243
R04G,Romenia,112,"Şoseaua Sibiului FN,Mediaş,Sibiu",551118,+40374772112,46.144846,24.323172
R04I,Romenia,114,"Blvd.Decebal 79,Piatra-Neamţ,Neamt",610046,+40374772114,46.934705,26.348626
R04J,Romenia,115,"Aleea Griviţa 7,Botoşani,Botosani",710270,+40374772115,47.748404,26.666841
R04M,Romenia,118,"Calea Bucureşti 80,Craiova,Dolj",200465,+40374772118,44.311997,23.832799
R04N,Romenia,119,"Ferdinand 38,Ramnicu Valcea,Valcea",240159,+40374772119,45.109708,24.380606
R050,Romenia,120,"Sos.Bucureşti-Ploieşti km 20,Baloteşti,Ilfov",077015,+40374772120,44.604778,26.068731
R051,Romenia,121,"Bd.Timisoara 56,Bucuresti,Bucuresti",061333,+40374772121,44.426299,26.017982
R052,Romenia,122,"Blvd.Gheorghe Magheru 43,Bucureşti,Bucuresti",010326,+40374772122,44.446318,26.096542
R053,Romenia,123,"Crisan 2,Arad,Arad",310016,+40374772123,46.178882,21.319525
R055,Romenia,125,"Stefan Octavian Iosif 7,Oradea,Bihor",410230,+40374772125,47.059592,21.913308
R056,Romenia,126,"Ionita Sandu Sturza 2,Bacau,Bacau",600269,+40374772126,46.565623,26.911577
R057,Romenia,127,"Republicii 76,Blejoi,Prahova",107070,+40374772127,44.965448,25.973666
R058,Romenia,128,"Blvd.Gheorghe Sincai 1-1A,Bucureşti,Bucuresti",040311,+40374772128,44.415504,26.106533
R05A,Romenia,130,"Careiului 3-5,Satu Mare,Satu Mare",440180,+40374772130,47.78506,22.86931
R05B,Romenia,131,"Calea Văcăreşti 214,Bucureşti,Bucuresti",040054,+40374772131,44.413102,26.113983
R05C,Romenia,132,"B-dul 1 Decembrie 1918 242,Târgu Mureş,Mures",540470,+40374772132,46.52894,24.59519
R05D,Romenia,133,"Mihai Viteazu 3-5,Roman,Neamt",611118,+40374772133,46.93775,26.921146
R05E,Romenia,134,"Amurgului 34,Popeşti Leordeni,Ilfov",077160,+40374772134,44.373202,26.149795
R05F,Romenia,135,"Calea Borşului 2C,Oradea,Bihor",410605,+40374772135,47.074598,21.903619
R05G,Romenia,136,"Blvd. Dacia 169,Bucureşti,Bucuresti",020057,+40374772136,44.444071,26.11826
R05H,Romenia,137,"Bd. Regele Carol I 51,Târgovişte,Dambovita",130024,+40374772137,44.911188,25.463813
R05I,Romenia,138,"Calea Victoriei 155,Bucureşti,Bucuresti",010073,+40374772138,44.451529,26.08506
R05J,Romenia,139,"Calea Buziaşului 11,Timişoara,Timis",300714,+40374772139,45.732764,21.261562
R05L,Romenia,141,"Lector 1-3A,Sibiu,Sibiu",550245,+40374772141,45.796494,24.162725
R05M,Romenia,142,"Niciman 2,Iaşi,Iasi",700521,+40374772142,47.1726,27.559055
R060,Romenia,144,"Nicolae Balcescu 4,Sibiu,Sibiu",550159,+40374772144,45.79556,24.15031
R061,Romenia,145,"Lunca Oltului 31-35,Sfântu Gheorghe,Covasna",520027,+40374772145,45.869473,25.798813
R062,Romenia,146,"Bd. Carol I 48,Iaşi,Iasi",700503,+40374772146,47.179642,27.568574
R063,Romenia,147,"Eroilor 17,Floreşti,Cluj",407280,+40374772147,46.738633,23.484126
R064,Romenia,148,"Bulevardul Unirii 21,Baia Mare,Maramures",430235,+40374772148,47.64266,23.572345
R065,Romenia,149,"Ion Ionescu de la Brad 15,Timişoara,Timis",300246,+40374772149,45.778693,21.242266
R066,Romenia,150,"Victoriei 73,Baia Mare,Maramures",430072,+40374772150,47.657395,23.54632
R067,Romenia,151,"Bld.Mihai Viteazul 58B,Zalău,Salaj",450090,+40374772151,47.201865,23.056875
R068,Romenia,152,"Bd.Iuliu Maniu 22,Bucureşti,Bucuresti",061107,+40374772152,44.43459,26.03547
R069,Romenia,153,"Piata 1 decembrie 1918 1,Ploieşti,Prahova",100543,+40374772153,44.928699,26.034829
R06B,Romenia,155,"Alexandru Ioan Cuza 2,Alba Iulia,Alba",510193,+40374772155,46.0858333,23.5920055
R06C,Romenia,156,"Piata Petrodava 5,Piatra-Neamţ,Neamt",610033,+40374772156,46.930045,26.361559
R06D,Romenia,157,"Bujorilor 160,Timişoara,Timis",300440,+40374772157,45.711971,21.212124
R06E,Romenia,158,"Univers 21,Turda,Cluj",401030,+40374772158,46.561913,23.817846
R06F,Romenia,159,"Magdalena 11,Moşniţa Nouă,Timis",307285,+40374772159,45.721222,21.298811
R00G,Romenia,16,"Calea Aradului 56 A,Timişoara,Timis",300642,+40374772016,45.78604,21.22133
R06G,Romenia,160,"Tudor Vladimirescu 85-87,Făgăraş,Brasov",505200,+40374772160,45.840674,24.988994
R06H,Romenia,161,"Regele Ferdinand 22-26,Cluj-Napoca,Cluj",400110,+40374772161,46.77287,23.5898
R06I,Romenia,162,"Primăverii 58G,Sovata,Mures",545500,+40374772162,46.580894,25.055822
R06J,Romenia,163,"Bulevardul General Paul Teodorescu 4,Bucureşti,Bucuresti",061344,+40374772163,44.43167,26.05125
R06K,Romenia,164,"Crişului 18,Braşov,Brasov",500283,+40374772164,45.64116,25.61669
R06L,Romenia,165,"Blvd.Voluntari 82A,Voluntari,Ilfov",077190,+40374772165,44.489166,26.188896
R06M,Romenia,166,"Victoriei,Târgu Jiu,Gorj",210166,+40374772166,45.03776,23.27023
R06N,Romenia,167,"Vâlcele 2A-2B,Dej,Cluj",405200,+40374772167,47.11596,23.89194
R070,Romenia,168,"Brăilei 167,Galaţi,Galati",800343,+40374772168,45.4279,28.03195
R071,Romenia,169,"Şos. Bucureşti - Constanţa (DN 2 A) 3L,Slobozia,Ialomita",920051,+40374772169,44.560816,27.348436
R072,Romenia,170,"Decebal 46,Vaslui,Vaslui",730085,+40374772170,46.638339,27.736899
R073,Romenia,171,"Stadionului 15,Brașov,Brasov",500064,+40374772171,45.665634,25.589714
R074,Romenia,172,"Valea Oltului 71,București,Bucuresti",061972,+40374772172,44.415689,26.014085
R075,Romenia,173,"Unirii 3,Buzău,Buzau",120226,+40374772173,45.13995,26.80082
R076,Romenia,174,"Eroilor Revolutiei din 22 Dec. 1989 49,Călărași,Calarasi",910005,+40374772174,44.199895,27.332068
R077,Romenia,175,"Bulevardul Metalurgiei 12-18,București,Bucuresti",041833,+40374772175,44.37491,26.11914
R078,Romenia,176,"B-dul Bucuresti 57,Giurgiu,Giurgiu",080185,+40374772176,43.896865,25.963664
R079,Romenia,177,"Calea Aurel Vlaicu 14,Arad,Arad",310159,+40374772177,46.192566,21.319402
R07A,Romenia,178,"Calea Șurii Mari 39 B,Sibiu,Sibiu",550089,+40374772178,45.822459,24.147542
R07B,Romenia,179,"Tudor Vladimirescu 37,Piteşti,Arges",110186,+40374772179,44.842495,24.898166
R00I,Romenia,18,"Banu Mărăcine 6,Arad,Arad",310150,+40374772018,46.185535,21.313874
R07C,Romenia,180,"Constantin Langa 91B,Miroslava,Iasi",707305,+40374772180,47.145972,27.529262
R07D,Romenia,181,"Ştefan Cel Mare 47 A,Constanţa,Constanta",900676,+40374772181,44.17858,28.64806
R07E,Romenia,182,"Calea Sagului 100,Timişoara,Timis",300516,+40374772182,45.72551,21.19878
R07F,Romenia,183,"Bd. Mihai Eminescu 4,Botoşani,Botosani",710014,+40374772183,47.75055,26.64213
R07G,Romenia,184,"Centrul Comercial din Şos. Vergului 20,Bucureşti,Bucuresti",022448,+40374772184,44.43799,26.18666
R07H,Romenia,185,"B-dul Tomis 391,Constanţa,Constanta",900519,+40374772185,44.21212,28.60397
R07I,Romenia,186,"Ion C. Bratianu 10 B,Mioveni,Arges",115400,+40374772186,44.961176,24.934635
R07J,Romenia,187,"Bulevardul Dem Rădulescu 2-14,Râmnicu Vâlcea,Valcea",240425,+40374772187,45.08931,24.369063
R07K,Romenia,188,"Bd. Nicolae Bălcescu 180 B,Piteşti,Arges",110066,+40374772188,44.882971,24.836774
R07L,Romenia,189,"Bulevardul Iuliu Maniu 560 B,Bucureşti,Bucuresti",061129,+40374772189,44.4402454,25.984742
R00J,Romenia,19,"Blvd.Muncii 21,Reşiţa,Caras-Severin",320200,+40374772019,45.330566,21.866548
R07M,Romenia,190,"Calea Vitan 55-59,Bucureşti,Bucuresti",031282,+40374772190,44.4203993,26.1266317
R07N,Romenia,191,"Sergent Nutu Ion 44,Bucureşti,Bucuresti",050762,+40374772191,44.425034,26.062834
R080,Romenia,192,"Bdul I.C. Bratianu 6,Câmpulung,Arges",115100,+40374772192,45.28044,25.0579
R081,Romenia,193,"Calea Aradului 87,Oradea,Bihor",410223,+40374772193,47.04296,21.89977
R082,Romenia,194,"Constantin Brâncoveanu 46 A,Râmnicu Sărat,Buzau",125300,+40374772194,45.37603,27.0436
R083,Romenia,195,"Republicii 30,Oradea,Bihor",410032,+40374772195,47.062512,21.937734
R084,Romenia,196,"Șoseaua București - Târgoviște 232 A2,Crevedia, sat Mănăstirea,Dambovita",137180,+40374772196,44.580749,25.93923
R085,Romenia,197,"Splaiul Independenţei 210 B,București,Bucuresti",060025,+40374772197,44.44603,26.06369
R086,Romenia,198,"Cetăţii Orod 4,Vladimirescu,Arad",317405,+40374772198,46.168043,21.38777
R087,Romenia,199,"Gageni 92,Ploieşti,Prahova",100136,+40374772199,44.960138,26.011257
R00K,Romenia,20,"Frăsinet FN,Buzău,Buzau",120052,+40374772020,45.162008,26.819644
R089,Romenia,201,"Centrul Comercial Pitesti Retail Park DN65B,Geamăna (Comuna Bradu),Arges",117140,+40374770601,44.82271,24.90936
R08A,Romenia,202,"Bdul Timișoara 26,București,Bucuresti",061331,+40374770600,44.42877,26.03449
R08B,Romenia,203,"Şoseaua Păcurari 121,Iaşi,Iasi",700545,+40374770602,47.16719,27.5126
R08C,Romenia,204,"Şoseaua Bucium 34 E,Iaşi,Iasi",700282,+40374770603,47.13134,27.6126
R08D,Romenia,205,"Popasului 110,Voluntari,Ilfov",077190,+40374770604,44.493752,26.151334
R08E,Romenia,206,"General Gheorghe Avramescu 10,Brăila,Braila",810253,+40374770605,45.255178,27.960427
R08F,Romenia,207,"Alexandru Vaida - Voievod 53B,Cluj-Napoca,Cluj",400436,+40374770618,46.77306,23.62797
R08G,Romenia,208,"Piaţa Consiliul Europei 2,Timişoara,Timis",300627,+40374770609,45.76643,21.22813
R08H,Romenia,209,"Ion Roată 3,Constanţa,Constanta",900280,+40374770606,44.17766,28.62391
R08I,Romenia,210,"Republicii 109,Cluj-Napoca,Cluj",400489,+40374770608,46.75616,23.59484
R08J,Romenia,211,"Zaharia Stancu 1,Braşov,Brasov",500167,+40374770607,45.67212,25.6149
R08K,Romenia,212,"Şos. Alexandriei, lot 1 116-118,Bragadiru,Ilfov",077025,+40374770612,44.38866,26.00978
R08L,Romenia,213,"1 Decembrie 196,Tunari,Ilfov",077180,+40374770610,44.55203,26.11164
R08M,Romenia,214,"Strada Independentei 12,Medgidia,Constanta",905600,+40374770614,44.26527,28.26098
R08N,Romenia,215,"Albești 30M,Curtea de Argeș,Arges",115300,+40374770611,45.16614,24.6694
R091,Romenia,217,"Corneliu Coposu 14,Satu Mare,Satu Mare",440005,+40374770613,47.79012,22.87348
R092,Romenia,218,"Bulevardul Armatei 34,Orastie,Hunedoara",335700,+40374770615,45.839265,23.182119
R094,Romenia,220,"Sportului 4,Odorheiu Secuiesc,Harghita",535600,+40374770616,46.31262,25.30223
R00N,Romenia,23,"Mocioni 6,Lugoj,Timis",305500,+40374772023,45.68311,21.90268
R010,Romenia,24,"Bucegi 19,Cluj-Napoca,Cluj",400667,+40374772024,46.75557,23.55987
R011,Romenia,25,"Şos. Alba Iulia 47A,Sibiu,Sibiu",550018,+40374772025,45.79288,24.13088
R015,Romenia,29,"Goethe 2,Timişoara,Timis",300006,+40374772029,45.752541,21.224779
R016,Romenia,30,"Blvd.Saturn 32,Braşov,Brasov",500342,+40374772030,45.64379,25.63181
R019,Romenia,33,"Petofi Sandor 18,Miercurea Ciuc,Harghita",530210,+40374772033,46.36033,25.80469
R01C,Romenia,36,"Independenţei 1,Târgovişte,Dambovita",130104,+40374772036,44.926405,25.463519
R01D,Romenia,37,"Gării 17,Bistriţa,Bistrita-Nasaud",420185,+40374772037,47.132425,24.486884
R01F,Romenia,39,"Calea Franceza 60,Bucureşti,Bucuresti",030106,+40374772039,44.42927,26.10173
R004,Romenia,4,"Calea Zarandului 87,Deva,Hunedoara",330182,+40374772004,45.86223,22.92828
R01J,Romenia,43,"Victoriei 3,Piteşti,Arges",110016,+40374772043,44.85764,24.87186
R01K,Romenia,44,"Blvd.Republicii 17-25,Ploieşti,Prahova",100009,+40374772044,44.94161,26.02139
R01L,Romenia,45,"Calea Moţilor 118,Alba Iulia,Alba",510065,+40374772045,46.08066,23.56395
R01M,Romenia,46,"DN1 KM 306,Şelimbăr,Sibiu",557260,+40374772046,45.77636,24.16941
R020,Romenia,48,"Calea Circumvalaţiunii 8-10,Timişoara,Timis",300012,+40374772048,45.75968,21.21843
R021,Romenia,49,"Moţilor 1A,Cluj-Napoca,Cluj",400001,+40374772049,46.76886,23.58464
R022,Romenia,50,"Bvld.Nicolae Titulescu 29,Slatina,Olt",230019,+40374772050,44.43181,24.36019
R023,Romenia,51,"Calea Floreasca 246 B,Bucureşti,Bucuresti",014476,+40374772051,44.478717,26.101944
R024,Romenia,52,"Blvd.Aurel Vlaicu 220,Constanţa,Constanta",900055,+40374772052,44.198663,28.609713
R025,Romenia,53,"Calea Bucureşti 105,Braşov,Brasov",500299,+40374772053,45.63256,25.63756
R026,Romenia,54,"Calea lui Traian 127,Râmnicu Vâlcea,Valcea",240165,+40374772054,45.1022,24.36331
R028,Romenia,56,"Theodor Aman 1,Craiova,Dolj",200730,+40374772056,44.3184059,23.7971431
R029,Romenia,57,"Şoseaua Giurgiului 127,Bucureşti,Bucuresti",040664,+40374772057,44.382903,26.092721
R02A,Romenia,58,"Blvd.Unirii 57,Focşani,Vrancea",620077,+40374772058,45.69616,27.18414
R02B,Romenia,59,"Republicii 11,Braşov,Brasov",500030,+40374772059,45.64252,25.59087
R02C,Romenia,60,"Blvd.Alexandru Obregia 25,Bucureşti,Bucuresti",041727,+40374772060,44.38334,26.11472
R02D,Romenia,61,"Mihai Eminescu 90,Brăila,Braila",810047,+40374772061,45.271772,27.967232
R02E,Romenia,62,"Blvd.Brailei 220,Galaţi,Galati",800409,+40374772062,45.4169,28.01293
R02F,Romenia,63,"Şoseaua Mihai Bravu 3,Bucureşti,Bucuresti",021302,+40374772063,44.449881,26.127505
R02G,Romenia,64,"Termocentralei 10,Târgu Jiu,Gorj",210233,+40374772064,45.024581,23.265148
R02J,Romenia,67,"Avram Iancu 492-500,Floreşti,Cluj",407280,+40374772067,46.750241,23.533745
R02L,Romenia,69,"Carol Telbisz 3,Timişoara,Timis",300001,+40374772069,45.755757,21.230634
R031,Romenia,73,"Calea Văcăreşti 391,Bucureşti,Bucuresti",040069,+40374772073,44.395891,26.122527
R033,Romenia,75,"Mihai Viteazu FN,Sighişoara,Mures",545400,+40374772075,46.226418,24.808223
R034,Romenia,76,"Gheorghe Doja 64-68,Târgu Mureş,Mures",540146,+40374772076,46.530829,24.546778
R036,Romenia,78,"Mihail Sebastian 88,Bucureşti,Bucuresti",050784,+40374772078,44.41844,26.072037
R037,Romenia,79,"Calomfirescu 2,Ploieşti,Prahova",100176,+40374772079,44.947093,26.030452
R008,Romenia,8,"Nufărului 30,Oradea,Bihor",410583,+40374772008,47.035751,21.950083
R038,Romenia,80,"Blvd.George Cosbuc 251,Galaţi,Galati",800506,+40374772080,45.451032,28.032045
R039,Romenia,81,"Livezeni 12,Petroşani,Hunedoara",332071,+40374772081,45.383034,23.372555
R03A,Romenia,82,"Braşov 25,Bucureşti,Bucuresti",061444,+40374772082,44.41718,26.035688
R03B,Romenia,83,"Şoseaua Bucureşti Nord 14,Voluntari,Ilfov",077190,+40374772083,44.489085,26.127232
R03C,Romenia,84,"Bulevardul Pierre De Coubertin 3-5,Bucureşti,Bucuresti",021901,+40374772084,44.4423,26.150665
R03D,Romenia,85,"Mihai Viteazu 14-20,Cluj Napoca,Cluj",400151,+40374772085,46.774421,23.591296
R03G,Romenia,88,"Blvd.1 Decembrie 1918 33A,Bucureşti,Bucuresti",032455,+40374772088,44.42049,26.179154
R03H,Romenia,89,"Ştefan cel Mare 28,Bacău,Bacau",600359,+40374772089,46.580221,26.915069
R03I,Romenia,90,"Piaţa Trandafirilor 45,Târgu Mureş,Mures",540053,+40374772090,46.544185,24.561398
R03K,Romenia,92,"Libertăţii 185,Alexandria,Teleorman",140017,+40374772092,43.970633,25.329877
R03L,Romenia,93,"Şoseaua Bucureşti-Ploieşti 44 A,Bucureşti,Bucuresti",013696,+40374772093,44.50985,26.088497
R03M,Romenia,94,"Blvd. Ştefan cel Mare şi Sfânt 5,Iaşi,Iasi",700064,+40374772094,47.163168,27.582328
R03N,Romenia,95,"Calea Moldovei 40A,Bistrița,Bistrita-Nasaud",420093,+40374772095,47.146399,24.514164
R040,Romenia,96,"str. Bucium 36,Iaşi,Iasi",700265,+40374772096,47.145021,27.610648
R043,Romenia,99,"Calea Severinului 5A,Craiova,Dolj",200233,+40374772099,44.32832,23.774763
J044,Serbia,100,"Đure Đakovića 3B,Požarevac,BRANIČEVSKI",12000,+381127160122,44.610454,21.175181
J045,Serbia,101,"Ustanička 170,Beograd (Zvezdara),BEOGRADSKI",11050,+381113470023,44.783289,20.500017
J047,Serbia,103,"Bulevar Miloša Obilića 93A,Vršac,JUŽNO BANATSKI",26300,+381132190181,45.131683,21.285774
J048,Serbia,104,"Jurija Gagarina 30G,Beograd (Novi Beograd),BEOGRADSKI",11070,+381116301035,44.803787,20.387141
J049,Serbia,105,"Zaplanjska 32,Beograd (Voždovac),BEOGRADSKI",11010,+381116303851,44.774883,20.490372
J04A,Serbia,106,"Dušana Popovića 39A,Kraljevo,RAŠKI",36000,+38136338431,43.7161734,20.69364
J04C,Serbia,108,"Radnička 9,Beograd (Čukarica),BEOGRADSKI",11030,+381117350450,44.787537,20.418228
J04D,Serbia,109,"Drage Spasić 32A,Beograd (Čukarica),BEOGRADSKI",11030,+381116356190,44.758153,20.416029
J04E,Serbia,110,"Kralja Milana 35,Beograd (Stari Grad),BEOGRADSKI",11102,+381117150102,44.80429,20.46593
J04F,Serbia,111,"Višnjićeva 8,Beograd (Stari Grad),BEOGRADSKI",11102,+381117850979,44.821415,20.459851
J04G,Serbia,112,"Save Kovačevića BB,Novi Pazar,RAŠKI",36300,+381205150135,43.141377,20.522694
J04H,Serbia,113,"Kneginje Milice 10,Jagodina,POMORAVSKI",35000,+381358150350,43.979251,21.259887
J04I,Serbia,114,"Čika Ljubina 9,Beograd (Stari Grad),BEOGRADSKI",11102,+381117151406,44.817019,20.45873
J04K,Serbia,116,"Bulevar Kraljice Marije 56,Kragujevac,ŠUMADIJSKI",34000,+381346170198,44.008983,20.897216
J04L,Serbia,117,"Krfska 5,Kruševac,RASINSKI",37000,+381373155098,43.5693381,21.339291
J04N,Serbia,119,"Čupićeva 2,Zaječar,ZAJEČARSKI",19000,+381193150097,43.902923,22.269034
J00C,Serbia,12,"Bulevar Mihajla Pupina 181,Beograd (Novi Beograd),BEOGRADSKI",11070,+381113196595,44.831498,20.410092
J051,Serbia,121,"Vojislava Ilića 141,Beograd (Zvezdara),BEOGRADSKI",11050,+381117850067,44.787386,20.502911
J052,Serbia,122,"Uralska 3,Beograd (Palilula),BEOGRADSKI",11060,+381117150224,44.817017,20.512139
J053,Serbia,123,"Braće Radovanovića 17,Beograd (Zvezdara),BEOGRADSKI",11050,+381117850914,44.793535,20.481282
J054,Serbia,124,"Rudnička 14,Beograd (Vračar),BEOGRADSKI",11104,+381117450124,44.792386,20.468622
J055,Serbia,125,"Bulevar oslobođenja BB,Leskovac,JABLANIČKI",16000,+381648571363,42.996126,21.944776
J058,Serbia,128,"Miloša Velikog 5g,Gornji Milanovac,MORAVSKI",32300,+381325150083,44.020914,20.460328
J059,Serbia,129,"Jurija Gagarina 20E,Beograd (Novi Beograd),BEOGRADSKI",11070,+381117450160,44.804976,20.401156
J05A,Serbia,130,"Trg Srpskih ratnika 5,Kraljevo,RAŠKI",36000,+381365155224,43.724271,20.687989
J05B,Serbia,131,"Bulevar Vudroa Vilsona 14,Beograd (Savski Venac),BEOGRADSKI",11040,+381117450089,44.801673,20.445059
J05C,Serbia,132,"Bulevar JNA 2G,Beograd (Savski Venac),BEOGRADSKI",11040,+381116351868,44.750719,20.48056
J05D,Serbia,133,"Braće Jerković 137A,Beograd (Voždovac),BEOGRADSKI",11010,+381117357616,44.764033,20.494144
J05E,Serbia,134,"Astrid Lindgren 21,Zuce,BEOGRADSKI",11225,+381117858069,44.713265,20.558584
J05F,Serbia,135,"Vojvode Mišića BB,Pirot,PIROTSKI",18300,+381102150102,43.162106,22.581484
J05G,Serbia,136,"22 Oktobra 7A,Beograd (Zemun),BEOGRADSKI",11080,+381117350889,44.837911,20.41481
J05I,Serbia,138,"Dubrovačka 3A,Surčin,BEOGRADSKI",11271,+381114283878,44.7923077,20.2731656
J05J,Serbia,139,"Cara Uroša 57,Beograd (Stari Grad),BEOGRADSKI",11102,+381116557758,44.826543,20.459963
J00E,Serbia,14,"Rifata Burdževića BB,Novi Pazar,RAŠKI",36300,+38120323453,43.141098,20.514817
J05K,Serbia,140,"Pivljanina Baja 1,Beograd (Savski Venac),BEOGRADSKI",11040,+381116557756,44.768733,20.453995
J05M,Serbia,142,"Omladinskih brigada 86A,Beograd (Novi Beograd),BEOGRADSKI",11070,+381116351959,44.81198,20.40163
J05N,Serbia,143,"Aleksinačkih rudara 39G,Beograd (Novi Beograd),BEOGRADSKI",11070,+381117358999,44.825425,20.416605
J060,Serbia,144,"Trg Pobede 7,Vršac,JUŽNO BANATSKI",26300,+381132155166,45.120384,21.298954
J061,Serbia,145,"Raška Dimitrijevića 2,Beograd (Novi Beograd),BEOGRADSKI",11070,+381117458019,44.81405,20.37591
J062,Serbia,146,"Neznanog junaka 23,Beograd (Savski Venac),BEOGRADSKI",11040,+381117359084,44.7734867,20.4625826
J063,Serbia,147,"Voje Dulića 4,Požarevac,BRANIČEVSKI",12000,+381127160198,44.621196,21.186662
J064,Serbia,148,"Vrnjačka 12,Vrnjačka Banja,RAŠKI",36210,+38136218218,43.619972,20.8928273
J00F,Serbia,15,"Trg srpskih dobrovoljaca 45,Kikinda,SEV.BANATSKI",23300,+381230316025,45.8317,20.467708
J066,Serbia,150,"Vojački put 1A,Nova Pazova,SREMSKI",22330,+381222151244,44.954994,20.201464
J069,Serbia,153,"Vojvode Stepe 318,Beograd (Voždovac),BEOGRADSKI",11010,+381116555411,44.76452,20.481563
J06A,Serbia,154,"Dragoslava Srejovića 2I,Beograd (Palilula),BEOGRADSKI",11060,+381117358384,44.816789,20.486694
J06B,Serbia,155,"Milentija Popovića 9,Beograd (Novi Beograd),BEOGRADSKI",11070,+381117357755,44.8092636,20.4314441
J06E,Serbia,158,"Nikole Pašića 21,Bor,BORSKI",19210,+381302150020,44.068071,22.100225
J06F,Serbia,159,"Tome Živanovića 56,Paraćin,POMORAVSKI",35250,+381358150144,43.872808,21.401573
J06G,Serbia,160,"Topličina 6,Zrenjanin,CENT. BANATSKI",23000,+381233155183,45.389056,20.400314
J06H,Serbia,161,"Kneza Višeslava 51,Beograd (Rakovica),BEOGRADSKI",11090,+381116556756,44.7466264,20.4290916
J06J,Serbia,163,"Vuka Karadžića 3G,Prokuplje,TOPLIČKI",18400,+381278150189,43.242009,21.607007
J06N,Serbia,167,"Blagoja Parovića 1Đ,Niš (Medijana),NIŠAVSKI",18000,+381184150255,43.324097,21.913162
J070,Serbia,168,"Veljka Vlahovića 11Đ,Smederevska Palanka,PODUNAVSKI",11420,+381264150492,44.371511,20.959699
J071,Serbia,169,"Terazije 6,Beograd (Stari Grad),BEOGRADSKI",11102,+381116962688,44.8144401,20.4601142
J073,Serbia,171,"Dragiše Mišovića 144,Čačak,MORAVSKI",32000,+38132373253,43.8798253,20.358758
J074,Serbia,172,"Nikole Tesle 11,Čačak,MORAVSKI",32000,+381325152359,43.890169,20.371246
J075,Serbia,173,"Industrijska 9D,Leskovac,JABLANIČKI",16000,+381163150288,43.000611,21.960118
J078,Serbia,176,"Zanatlijska bb,Aranđelovac,ŠUMADIJSKI",34300,None,44.303019,20.588395
J079,Serbia,177,"Crvene Armije 65V,Smederevo,PODUNAVSKI",11300,None,44.647418,20.948424
J07A,Serbia,178,"Kralja Petra Oslobodioca 135,Stara Pazova,SREMSKI",22300,None,44.995231,20.154767
J00I,Serbia,18,"Dr.Ivana Ribara 131,Beograd (Novi Beograd),BEOGRADSKI",11070,+381112287810,44.79382,20.375041
J07C,Serbia,180,"Patrijarha Dimitrija 14,Beograd (Rakovica),BEOGRADSKI",11090,None,44.739947,20.436942
J00J,Serbia,19,"Milutina Milankovića 34,Beograd (Novi Beograd),BEOGRADSKI",11070,+381113111506,44.807153,20.424692
J010,Serbia,24,"Nevesinjska 2,Beograd (Vračar),BEOGRADSKI",11104,+381112435715,44.798997,20.472822
J015,Serbia,29,"Glavna 20,Beograd (Zemun),BEOGRADSKI",11080,+381113755400,44.844127,20.411879
J003,Serbia,3,"Vojvode Stepe 116A,Beograd (Voždovac),BEOGRADSKI",11010,+381113097311,44.778465,20.4736056
J016,Serbia,30,"Japanska 19,Beograd (Novi Beograd),BEOGRADSKI",11070,+381112282140,44.804256,20.377145
J018,Serbia,32,"Vojvode Stepe 11,Inđija,SREMSKI",22320,+381222100001,45.049725,20.082464
J01B,Serbia,35,"Brankova 3,Beograd (Stari Grad),BEOGRADSKI",11102,+381113281488,44.814176,20.456511
J01D,Serbia,37,"Marijane Gregoran 58,Beograd (Palilula),BEOGRADSKI",11060,+381112993803,44.812858,20.513494
J01E,Serbia,38,"Kralja Aleksandra I Karađorđevića 32,Kragujevac,ŠUMADIJSKI",34000,+38134353866,44.01165,20.913539
J01J,Serbia,43,"Braće Badžak 2,Mladenovac,BEOGRADSKI",11400,+381117740696,44.447132,20.687063
J01K,Serbia,44,"Nikole Pašića 29,Niš (Medijana),NIŠAVSKI",18000,+38118240316,43.318278,21.895948
J01L,Serbia,45,"Narodnih heroja 63,Beograd (Novi Beograd),BEOGRADSKI",11070,+381112694683,44.8176516,20.401706
J01N,Serbia,47,"Partizanske avijacije 2,Beograd (Novi Beograd),BEOGRADSKI",11070,+381112284522,44.824663,20.389574
J021,Serbia,49,"Miloša Obrenovića 12,Pančevo,JUŽNO BANATSKI",26000,+38113313015,44.869337,20.659795
J023,Serbia,51,"Vojvode Stepe Stepanovića 9I,Kaluđerica,BEOGRADSKI",11130,+381116853092,44.7609439,20.550911
J024,Serbia,52,"Ustanička 64A,Beograd (Zvezdara),BEOGRADSKI",11050,+381112408180,44.785872,20.480561
J025,Serbia,53,"Kralja Stefana Prvovenčanog 47,Vranje,PČINJSKI",17500,+38117420695,42.552269,21.899075
J027,Serbia,55,"Trg Kralja Milana 11,Niš (Medijana),NIŠAVSKI",18000,+381184151088,43.3217411,21.8952688
J028,Serbia,56,"Batajnički drum 1,Beograd (Zemun),BEOGRADSKI",11080,+381112190202,44.862485,20.367258
J02D,Serbia,61,"Doktora Zorana Đinđića 13,Kragujevac,ŠUMADIJSKI",34000,+38134356151,44.012135,20.917856
J02I,Serbia,66,"Vuka Bojovića 2V,Jagodina,POMORAVSKI",35000,+381358100453,43.9673584,21.2643107
J02J,Serbia,67,"Makedonska 44,Beograd (Stari Grad),BEOGRADSKI",11102,+381113344565,44.8152775,20.4653731
J02K,Serbia,68,"Vizantijski Bulevar 1A,Niš (Medijana),NIŠAVSKI",18000,+38118530165,43.32313,21.92531
J02L,Serbia,69,"Bulevar umetnosti 4,Beograd (Novi Beograd),BEOGRADSKI",11070,+381113190169,44.820594,20.414331
J02N,Serbia,71,"Takovska 1,Kruševac,RASINSKI",37000,+381373150128,43.580667,21.329944
J030,Serbia,72,"Vidikovački venac 102G,Beograd (Rakovica),BEOGRADSKI",11090,+381112330055,44.7398917,20.4161583
J032,Serbia,74,"Despota Đurđa 15,Smederevo,PODUNAVSKI",11300,+381264632334,44.667442,20.926235
J034,Serbia,76,"Bulevar Mihajla Pupina 4,Beograd (Novi Beograd),BEOGRADSKI",11070,+381112602529,44.8154784,20.4372278
J036,Serbia,78,"Beogradskog bataljona 4,Beograd (Čukarica),BEOGRADSKI",11030,+381116308915,44.773938,20.416521
J037,Serbia,79,"Živka Davidovića 86,Beograd (Zvezdara),BEOGRADSKI",11050,+381116308236,44.786222,20.514465
J038,Serbia,80,"Bulevar Kralja Aleksandra 249,Beograd (Zvezdara),BEOGRADSKI",11050,+381112444501,44.794881,20.501317
J039,Serbia,81,"Bagljaš Zapad 5,Zrenjanin,CENT. BANATSKI",23000,+381233101227,45.376935,20.352834
J03C,Serbia,84,"Darinke Radović 33,Beograd (Čukarica),BEOGRADSKI",11030,+381112570169,44.730629,20.383053
J03D,Serbia,85,"Masarikova 5,Beograd (Stari Grad),BEOGRADSKI",11102,+381113671097,44.807055,20.463667
J03E,Serbia,86,"Rableova 17,Beograd (Zvezdara),BEOGRADSKI",11050,+381116304364,44.786731,20.534852
J03G,Serbia,88,"Bulevar Medijana 21,Niš (Medijana),NIŠAVSKI",18000,+381184520450,43.31131,21.93598
J03J,Serbia,91,"Vojvode Mišića 36V,Obrenovac,BEOGRADSKI",11500,+381116307434,44.652833,20.1844
J03L,Serbia,93,"Bratstva i jedinstva 2G,Borča,BEOGRADSKI",11211,+381117704349,44.889043,20.458224
J03M,Serbia,94,"Vojvode Radomira Putnika 8,Pančevo,JUŽNO BANATSKI",26000,+38113331239,44.869921,20.644053
J040,Serbia,96,"Bulevar kralja Aleksandra 30-32,Beograd (Vračar),BEOGRADSKI",11104,+381113342182,44.808932,20.46844
J041,Serbia,97,"Knez Mihailova 54,Beograd (Stari Grad),BEOGRADSKI",11102,+381117702001,44.820096,20.454328
J042,Serbia,98,"Šalinačka 58,Smederevo,PODUNAVSKI",11300,+381264103620,44.647165,20.948707
J043,Serbia,99,"Železnička 4,Lazarevac,BEOGRADSKI",11550,+381116301784,44.386823,20.250984
B059,Slovakia,129,"Moldavská cesta 32,Košice,Kraj Kosice",040 11,+421553260510,48.69539,21.237227
B05M,Slovakia,142,"OC Galéria, Toryská ulica 5,Košice,Kraj Kosice",040 01,+421553260511,48.71479,21.23756
B06C,Slovakia,156,"OD Moyzesova 7,Poprad,Kraj Presov",058 01,+421523260511,49.04465,20.29156
B07D,Slovakia,181,"Duklianskych hrdinov 26706/31A,Vranov nad Topľou,Kraj Presov",093 01,+421573260511,48.884931,21.678738
B07E,Slovakia,182,"Duklianska ul. 3821,Bardejov,Kraj Presov",085 01,+421543260510,49.301771,21.284005
B07G,Slovakia,184,"Sobranecká cesta 5,Michalovce,Kraj Kosice",071 01,+421563260511,48.744148,21.920933
B07J,Slovakia,187,"Alej Jána Pavla II. 2,Rožňava,Kraj Kosice",048 01,+421583260510,48.653094,20.536313
B07K,Slovakia,188,"Mlynská 39,Spišská Nová Ves,Kraj Kosice",052 01,+421533260510,48.935208,20.576045
B08D,Slovakia,205,"SNP 10,Rimavská Sobota,Kraj Banska Bystrica",979 01,+421473260511,48.38373,20.01961
B08H,Slovakia,209,"Námestie Slobody 21,Humenné,Kraj Presov",066 01,+421573260512,48.93585,21.90872
B08L,Slovakia,213,"Hlavná 56,Košice,Kraj Kosice",040 01,+421553260512,48.72163,21.25688
B094,Slovakia,220,"Arm. gen. L. Svobodu 21/a,Prešov,Kraj Presov",080 01,+421513260511,48.987342,21.262583
B098,Slovakia,224,"M.R.Štefánika 10,Trebišov,Kraj Kosice",075 01,+421563260512,48.63319,21.71762
B099,Slovakia,225,"Trieda KVP 1,Košice,Kraj Kosice",040 23,+421553260513,48.71562,21.21351
B09B,Slovakia,227,"Medza 14,Spišská Nová Ves,Kraj Kosice",052 01,+421533260511,48.947562,20.550677
B09L,Slovakia,237,"Teplická 5142,Poprad,Kraj Presov",058 01,+421523260510,49.06015,20.26233
B0A3,Slovakia,243,"Popradská 73/1853,Stará Ľubovňa,Kraj Presov",064 01,+421523260512,49.30553,20.68549
B0AM,Slovakia,262,"Sovietskych hrdinov 627/37,Svidník,Kraj Presov",089 01,+421543260511,49.30947,21.57165
B0B5,Slovakia,269,"Americká trieda 11,Košice,Kraj Kosice",040 13,+421553260515,48.75294,21.26948
B0B8,Slovakia,272,"Staničné námestie 11,Košice,Kraj Kosice",040 01,+421553260516,48.72294,21.26754
B0BE,Slovakia,278,"Námestie Svätého Egídia 290/124,Poprad,Kraj Presov",058 01,+421523260513,49.053162,20.298411
B0BI,Slovakia,282,"Napájadlá 1/E,Košice,Kraj Kosice",040 12,+421553260517,48.683823,21.284975
B0CD,Slovakia,301,"Solivarská 14839/1C,Prešov,Kraj Presov",080 01,+421513260513,48.984442,21.253399
B0CF,Slovakia,303,"Humenská ulica 4,Michalovce,Kraj Kosice",071 01,+421563260513,48.752535,21.89896
B0CM,Slovakia,310,"Bernolákova 307,Sabinov,Kraj Presov",083 01,+421513260515,49.09567,21.110724
B0CN,Slovakia,311,"Tvarožnianska 2592/7,Kežmarok,Kraj Presov",060 01,+421523260514,49.129779,20.431688
B0DE,Slovakia,326,"Herlianska 60,Košice,Kraj Kosice",040 14,+421553260518,48.728078,21.292628
B0DK,Slovakia,332,"Obchodná ulica 2889/8,Ľubotice,Kraj Presov",080 06,+421513260514,49.012996,21.258421
B0E2,Slovakia,338,"Hlavná 111,Košice,Kraj Kosice",040 01,+421553260519,48.725419,21.255875
B0ED,Slovakia,349,"Ludvika Svobodu 5966,Poprad,Kraj Presov",058 01,+421523260515,49.0494084,20.3060798
B0F1,Slovakia,361,"Pri hati 3853/2B,Košice,Kraj Kosice",040 01,+421553260514,48.743612,21.2598686
B0F9,Slovakia,369,"Komenského 2652/2,Snina,Kraj Presov",069 01,+421573260513,48.985174,22.161126
B0FK,Slovakia,380,"Obchodná 6/B,Michalovce,Kraj Kosice",071 01,+421563260514,48.7570204,21.9162698
B0G3,Slovakia,387,"Milana Rastislava Štefánika 1699/15,Revúca,Kraj Banska Bystrica",050 01,+421583260511,48.6753282,20.1272098
B0G9,Slovakia,393,"Námestie legionárov 15267/1,Prešov,Kraj Presov",080 01,+421513260512,48.9929206,21.2437027
A00A,Austria,10,"Rosengasse 1,Lienz,Tirol",9900,+43485262855,46.829389,12.766169
A045,Austria,101,"Schweizer Straße 79,Hohenems,Vorarlberg",6845,+43557642212,47.37279,9.67919
A046,Austria,102,"Altenburgerstraße 20/9,Neusiedl am See,Burgenland",7100,+43216740271,47.972379,16.841211
A047,Austria,103,"Betriebsstraße 9,Unterweitersdorf,Oberösterreich",4213,+43723565008,48.357436,14.475105
A049,Austria,105,"Feldkirchenstraße 36a,Kalsdorf bei Graz,Steiermark",8401,+43313557419,46.97078,15.461184
A04A,Austria,106,"Weinzöttlstraße 16,Graz,Steiermark",8045,+43316676046,47.100932,15.416868
A00B,Austria,11,"Thaliastraße 96-100,Wien,Wien",1160,+4314854768,48.211795,16.318361
A04E,Austria,110,"Villacher Straße 24,Feldkirchen in Kärnten,Kärnten",9560,+43427638338,46.721626,14.087367
A04F,Austria,111,"Kreuzstraße 20,Althofen,Kärnten",9330,+4342624077,46.870862,14.468085
A04H,Austria,113,"Olympiaplatz 2,Wien,Wien",1020,+4317265124,48.20985,16.422944
A04K,Austria,116,"Autokaderstraße 3-7,Wien,Wien",1210,+4312723116,48.277456,16.387584
A051,Austria,121,"St.-Anna-Weg 21,Rankweil,Vorarlberg",6830,+43552275178,47.273168,9.607134
A052,Austria,122,"Salurner Straße 59,Kufstein,Tirol",6330,+43537263865,47.57476,12.158106
A053,Austria,123,"Freßnitz 87,Krieglach,Steiermark",8670,+43385527096,47.539014,15.533181
A054,Austria,124,"Albert-Schweitzer-Gasse 6a,Wien,Wien",1140,+4315771819,48.208055,16.219168
A055,Austria,125,"Kärntner Straße 34,Villach,Kärnten",9500,+43424235348,46.595566,13.835286
A056,Austria,126,"Rebengasse 17,Wiener Neustadt,Niederösterreich",2700,+43262261109,47.802895,16.240826
A057,Austria,127,"Europastraße 1,Salzburg,Salzburg",5020,+43662433159,47.815572,13.008252
A058,Austria,128,"Moosstraße 10,Tiefgraben,Oberösterreich",5310,+43623236029,47.868097,13.3251
A05A,Austria,130,"Itzlinger Hauptstraße 93a,Salzburg,Salzburg",5020,+43662452080,47.827967,13.036668
A05B,Austria,131,"Wiener Straße 154-158,Langenzersdorf,Niederösterreich",2103,+43224429426,48.30141,16.372299
A05C,Austria,132,"Gadnergasse 2-4,Wien,Wien",1110,+4317431063,48.166392,16.409097
A05D,Austria,133,"Werkstraße 16,Ternitz,Niederösterreich",2630,+43263033581,47.710518,16.040634
A05E,Austria,134,"St. Veiter Ring 20,Klagenfurt am Wörthersee,Kärnten",9020,+4346354212,46.627423,14.310759
A05F,Austria,135,"Gewerbepark Ost 2b,Scheifling,Steiermark",8811,+43358221029,47.155086,14.415557
A05G,Austria,136,"Unterer Stadtplatz 9,Waidhofen an der Ybbs,Niederösterreich",3340,+43744253882,47.960544,14.773713
A05H,Austria,137,"Mariatroster Straße 373,Graz,Steiermark",8044,+43316392662,47.112477,15.500236
A05K,Austria,140,"Ikea-Platz 4,Ansfelden,Oberösterreich",4053,+43722979012,48.196082,14.247628
A05L,Austria,141,"Gewerbestraße 9,Sierning,Oberösterreich",4522,+43725934771,48.036526,14.314307
A05M,Austria,142,"Gailtalstraße 27,Hermagor-Pressegger See,Kärnten",9620,+4342822848,46.623971,13.372623
A060,Austria,144,"Wiener Straße 75,Traiskirchen,Niederösterreich",2514,+432252508034,48.021882,16.297128
A062,Austria,146,"Kremser Gasse 23,St. Pölten,Niederösterreich",3100,+432742353272,48.20575,15.624439
A063,Austria,147,"Niederfeldweg 9E-9F,Brixlegg,Tirol",6230,+43533762231,47.436664,11.882585
A066,Austria,150,"Lendplatz 40,Graz,Steiermark",8020,+43316718171,47.075672,15.432055
A068,Austria,152,"Hauptplatz 19,Leoben,Steiermark",8700,+43384243819,47.38172,15.09434
A069,Austria,153,"Wasserwerkstraße 30e,Leibnitz,Steiermark",8430,+43345273726,46.795734,15.557178
A06A,Austria,154,"Sillian 2i,Sillian,Tirol",9920,+43484251685,46.745654,12.406241
A06B,Austria,155,"Museumstraße 38,Innsbruck,Tirol",6020,+43512567419,47.265925,11.404084
A06C,Austria,156,"Ostbahnstraße 3,Graz,Steiermark",8041,+43316474111,47.040679,15.465123
A06D,Austria,157,"Am See-Ring 4,St. Georgen im Attergau,Oberösterreich",4880,+43766721750,47.928814,13.505147
A00G,Austria,16,"Plüddemanngasse 70-72,Graz,Steiermark",8010,+43316471847,47.063013,15.465756
A06H,Austria,161,"Schumacherstraße 14,Salzburg,Salzburg",5020,+43662438171,47.813923,13.026625
A06K,Austria,164,"Angyalföldstraße 76,Wien,Wien",1210,+4312567210,48.253132,16.425916
A06N,Austria,167,"Maria-Theresien-Straße 29-35,Innsbruck,Tirol",6020,+43512589912,47.26531,11.394473
A070,Austria,168,"Davidgasse 82-90,Wien,Wien",1100,+4316031394,48.174789,16.358762
A071,Austria,169,"Amraser-See-Straße 56a,Innsbruck,Tirol",6020,+43512391225,47.26264,11.430935
A072,Austria,170,"Praterstern 1,Wien,Wien",1020,+4312120820,48.218471,16.392301
A073,Austria,171,"Sechshauser Gürtel 1-3,Wien,Wien",1150,+4318920094,48.189996,16.337187
A075,Austria,173,"Zentagasse 11-13,Wien,Wien",1050,+4315443164,48.18727,16.359583
A077,Austria,175,"Michael-Seeber-Straße 3,Telfs,Tirol",6410,+43526265016,47.304284,11.078084
A078,Austria,176,"Jakobistraße 15,Obertrum am See,Salzburg",5162,+4362196124,47.9334,13.080305
A079,Austria,177,"Wiener Straße 35,Güssing,Burgenland",7540,+43332242680,47.070408,16.320576
A07A,Austria,178,"Neue Landstraße 72,Vorchdorf,Oberösterreich",4655,+43761471761,48.00852,13.921268
A07B,Austria,179,"Martinstraße 61,Wien,Wien",1180,+4314057622,48.223676,16.341641
A084,Austria,196,"Pfister 1235,Egg,Vorarlberg",6863,+43551220535,47.429095,9.89692
A086,Austria,198,"Neubaugasse 28-30/1/1,Wien,Wien",1070,+4315222904,48.20036,16.349428
A087,Austria,199,"Südtiroler Platz 12,Wien,Wien",1100,+4316005700,48.185076,16.374522
A002,Austria,2,"Elterleinplatz 6,Wien,Wien",1170,+4314087580,48.21804,16.330943
A089,Austria,201,"Leopold Loibl-Straße 2,Korneuburg,Niederösterreich",2100,+43226273164,48.350069,16.338428
A08A,Austria,202,"Wiedner Hauptstraße 17,Wien,Wien",1040,+4316045038,48.19673,16.367587
A08C,Austria,204,"Gmundner Straße 35,Laakirchen,Oberösterreich",4663,+43761320068,47.975381,13.819746
A08D,Austria,205,"Hütteldorfer Straße 81b,Wien,Wien",1150,+4317864266,48.198791,16.319763
A08F,Austria,207,"St. Pöltner Straße 46-52,Herzogenburg,Niederösterreich",3130,+43278284458,48.279817,15.695601
A08G,Austria,208,"Löwenpark 1,Melk,Niederösterreich",3390,+43275251378,48.224182,15.337538
A08I,Austria,210,"Umfahrungsstraße 8,Völkermarkt,Kärnten",9100,+4342322486,46.662983,14.623821
A08K,Austria,212,"Aspersdorferstraße 11c,Hollabrunn,Niederösterreich",2020,+4329524068,48.569212,16.081509
A08L,Austria,213,"Leopoldauer Straße 26-32,Wien,Wien",1210,+4312716524,48.258691,16.409509
A08N,Austria,215,"Doningasse 12,Wien,Wien",1220,+4312030463,48.250917,16.443832
A090,Austria,216,"Gunskirchner Straße 7,Wels,Oberösterreich",4600,+437242206752,48.146636,13.974131
A091,Austria,217,"Gewerbeparkstraße 6b,Krems an der Donau,Niederösterreich",3500,+43273278311,48.405119,15.658563
A092,Austria,218,"Schönbrunner Straße 194-196,Wien,Wien",1120,+4318105522,48.185061,16.336261
A093,Austria,219,"Wagramer Straße 195,Wien,Wien",1210,+4312595689,48.263621,16.453054
A094,Austria,220,"Breitenfurter Straße 261,Wien,Wien",1230,+4316627918,48.1507,16.301519
A095,Austria,221,"Druckereistraße 3-30,Gmunden,Oberösterreich",4810,+43761266010,47.926044,13.789529
A096,Austria,222,"SCS-Straße 11,Vösendorf,Niederösterreich",2334,+4316998720,48.111341,16.318811
A098,Austria,224,"Naarner Straße 81b,Perg,Oberösterreich",4320,+43726253950,48.23794,14.625989
A099,Austria,225,"Bahnhofviertel 29,Murau,Steiermark",8850,+43353229081,47.108675,14.180801
A09A,Austria,226,"Zehnergürtel 12-24,Wiener Neustadt,Niederösterreich",2700,+43262227496,47.819147,16.216894
A09B,Austria,227,"Laaer-Berg-Straße 49,Wien,Wien",1100,+4316005579,48.165966,16.391085
A09C,Austria,228,"Dorfstraße 20,Schlitters,Tirol",6262,+43528872027,47.375033,11.843547
A09D,Austria,229,"Reinprechtsdorfer Straße 32-34,Wien,Wien",1050,+4315450869,48.185167,16.354661
A09E,Austria,230,"Fosenstraße 1,Freistadt,Oberösterreich",4240,+43794275262,48.5168026,14.5042001
A09F,Austria,231,"Wiener Strasse 286,Graz,Steiermark",8051,+43316689810,47.0953,15.405023
A09G,Austria,232,"Samergasse 1,Mittersill,Salzburg",5730,+4365625308,47.284211,12.489795
A09H,Austria,233,"Wolfgangseestraße 30,Hof bei Salzburg,Salzburg",5322,+43622936704,47.819023,13.215316
A09I,Austria,234,"Gatterederstraße 19-21,Wien,Wien",1230,+4318861909,48.148919,16.289369
A09J,Austria,235,"Mönchhoferstraße 9-11,Frauenkirchen,Burgenland",7132,+43217220056,47.843407,16.929755
A09L,Austria,237,"Ötscherlandstraße 16/1,Purgstall an der Erlauf,Niederösterreich",3251,+43748930069,48.05346,15.13842
A09M,Austria,238,"Eggenberger Allee 33,Graz,Steiermark",8020,+43316205280,47.070175,15.404448
A09N,Austria,239,"Hartheimerstraße 31,Linz,Oberösterreich",4030,+43732301700,48.240779,14.333704
A0A0,Austria,240,"Alpenstraße 106,Anif,Salzburg",5081,+43624673999,47.737213,13.050688
A0A1,Austria,241,"Gewerbeparkstraße 21,Wien,Wien",1220,+4317342585,48.243803,16.461866
A0A2,Austria,242,"Gewerbehof 1-3,Kufstein,Tirol",6330,+43537267323,47.584632,12.170873
A0A3,Austria,243,"Preßburger Reichsstraße 1,Hainburg a.d. Donau,Niederösterreich",2410,+43216566015,48.149105,16.945977
A0A4,Austria,244,"Weitmoserstraße 1,Bad Hofgastein,Salzburg",5630,+4364328264,47.157332,13.106628
A0A5,Austria,245,"Grinzinger Straße 112,Wien,Wien",1190,+4313675394,48.254041,16.368034
A0A6,Austria,246,"Alpenstraße 107,Salzburg,Salzburg",5020,+43662629879,47.774934,13.07045
A0A9,Austria,249,"Hubatschstraße 3,Brunn am Gebirge,Niederösterreich",2345,+43223631655,48.106739,16.313602
A0AB,Austria,251,"Weberzeile 1,Ried im Innkreis,Oberösterreich",4910,+43775226809,48.207385,13.485089
A0AC,Austria,252,"Weblinger Gürtel 25,Graz,Steiermark",8054,+43316244055,47.03377,15.41708
A0AE,Austria,254,"Griesfeldstraße 6,Wiener Neudorf,Niederösterreich",2351,+432236660143,48.078452,16.322841
A0AF,Austria,255,"Breitenfurter Straße 78,Wien,Wien",1120,+4318030002,48.163229,16.313043
A0AG,Austria,256,"Salzburger Straße 1,Liezen,Steiermark",8940,+43361223277,47.561996,14.244755
A0AH,Austria,257,"Halbenrainerstraße 13,Bad Radkersburg,Steiermark",8490,+4334764027,46.690784,15.981754
A0AI,Austria,258,"Landwehrstraße 6,Wien,Wien",1110,+4317670593,48.169428,16.472563
A0AJ,Austria,259,"Gudrunstraße 2/3/1A,Wien,Wien",1100,+4316001488,48.17765,16.385265
A0AL,Austria,261,"Erlachweg 12,Braunau am Inn,Oberösterreich",5280,+43772264468,48.249805,13.044713
A0AM,Austria,262,"Klagenfurter Straße 27,Ferlach,Kärnten",9170,+43422720473,46.52812,14.291399
A0AN,Austria,263,"Hauptplatz 6,Villach,Kärnten",9500,+43424222657,46.614789,13.847187
A0B0,Austria,264,"Hatric 11,Hartberg,Steiermark",8230,+43333263851,47.282444,15.994052
A0B1,Austria,265,"Köstlergasse 1,Wien,Wien",1060,+4315811701,48.197568,16.359844
A0B2,Austria,266,"Jochberger Straße 66,Kitzbühel,Tirol",6370,+43535662870,47.438538,12.40032
A0B3,Austria,267,"Linzer Straße 387,Wien,Wien",1140,+4319112933,48.201635,16.260525
A0B4,Austria,268,"Porzellangasse 21-23,Wien,Wien",1090,+4313101537,48.220177,16.361179
A0B5,Austria,269,"Schüttaustraße 59,Wien,Wien",1220,+4312631123,48.226848,16.422736
A013,Austria,27,"Messestraße 2,Dornbirn,Vorarlberg",6850,+43557229672,47.41132,9.712567
A0B6,Austria,270,"Ottakringer Straße 190-192,Wien,Wien",1160,+4314802559,48.213735,16.312076
A0B8,Austria,272,"Aßmayergasse 44,Wien,Wien",1120,+4318102615,48.179443,16.337324
A0B9,Austria,273,"Rennweg 33A,Wien,Wien",1030,+4317104247,48.194849,16.385922
A0BA,Austria,274,"Gewerbeparkstraße 2,Wien,Wien",1220,+4317341270,48.247612,16.463762
A0BB,Austria,275,"Porschestraße 12,St. Pölten,Niederösterreich",3100,+43274235937,48.172633,15.616303
A0BC,Austria,276,"Braunauerstraße 8b,Straßwalchen,Salzburg",5204,+43621550107,47.983114,13.255011
A0BD,Austria,277,"Wiener Straße 121,Baden,Niederösterreich",2500,+432252259753,48.014045,16.257615
A0BE,Austria,278,"Oberfeldstraße 91,Wels,Oberösterreich",4600,+43724262252,48.182345,14.013163
A0BF,Austria,279,"Rebenland-Center-Straße 1d,Straß in Steiermark,Steiermark",8472,+43345322164,46.738712,15.603155
A017,Austria,31,"Universitätsplatz 17,Salzburg,Salzburg",5020,+43662843263,47.799526,13.043966
A018,Austria,32,"Thunstraße 16,Hallein,Salzburg",5400,+43624584019,47.682663,13.096106
A019,Austria,33,"Hauptplatz 12,Korneuburg,Niederösterreich",2100,+43226261183,48.344222,16.334448
A01D,Austria,37,"Birkfelder Straße 9,Weiz,Steiermark",8160,+4331722710,47.217416,15.627403
A01E,Austria,38,"Bahnhofstraße 36a,Wörgl,Tirol",6300,+43533273741,47.488685,12.063085
A01G,Austria,40,"Marktplatz 15,Feldkirch,Vorarlberg",6800,+43552271501,47.237221,9.595913
A01H,Austria,41,"Landstraße 77,Linz,Oberösterreich",4020,+43732604863,48.298096,14.291729
A01I,Austria,42,"Marktstraße 22,Dornbirn,Vorarlberg",6850,+43557221986,47.411279,9.742144
A0HD,Austria,421,"Königshofstraße 57,Feldkirch,Vorarlberg",6800,+43552231156,47.266782,9.614961
A0HE,Austria,422,"Anton Gareis-Straße 3a,Zwettl-Niederösterreich,Niederösterreich",3910,+43282251707,48.600696,15.186368
A0HF,Austria,423,"Hietzinger Hauptstraße 7,Wien,Wien",1130,+4318773210,48.186169,16.300243
A0HG,Austria,424,"Lerchenfelder Straße 37,Wien,Wien",1070,+4315223261,48.206288,16.350427
A0HH,Austria,425,"Langer Weg 15,Innsbruck,Tirol",6020,+43512364014,47.267927,11.424973
A0HI,Austria,426,"Grazer Straße 1,Bruck an der Mur,Steiermark",8600,+43386256755,47.408918,15.274519
A0HJ,Austria,427,"Pottendorfer Straße 39,Wiener Neustadt,Niederösterreich",2700,+43262264191,47.826361,16.251242
A0HK,Austria,428,"Sterngasse 11,Wien,Wien",1230,+4316176230,48.148348,16.339487
A0HL,Austria,429,"Hauptplatz 11-14,Tulln an der Donau,Niederösterreich",3430,+43227264733,48.330405,16.050852
A01J,Austria,43,"Mariahilfer Straße 89a,Wien,Wien",1060,+4315861737,48.197414,16.347759
A0HM,Austria,430,"Intro Park Einkaufszentrum 1,Siegendorf,Burgenland",7011,+43268742232,47.775899,16.528754
A0HN,Austria,431,"Bernsteinstraße 2,Hohenau an der March,Niederösterreich",2273,+43253531698,48.603836,16.902821
A0I0,Austria,432,"Johann-Georg-Ulmer-Straße 2,Dornbirn,Vorarlberg",6850,+435572386289,47.426754,9.740038
A0I1,Austria,433,"Hauptplatz 5-9,Leibnitz,Steiermark",8430,+43345271511,46.781067,15.538008
A0I2,Austria,434,"Troststraße 11,Wien,Wien",1100,+4316006730,48.168486,16.378163
A0I3,Austria,435,"Erdberger Lände 38,Wien,Wien",1030,+4317107909,48.199715,16.406666
A0I4,Austria,436,"Salzburger Straße 104,Bad Ischl,Oberösterreich",4820,+43613222602,47.7185,13.583213
A0I5,Austria,437,"Fred-Zinnemann-Platz 4/3,Wien,Wien",1030,+4317963471,48.188925,16.398827
A0I6,Austria,438,"Haager Straße 60,Steyr,Oberösterreich",4400,+43725241724,48.060499,14.45377
A0I7,Austria,439,"Rheinstraße 14,Bregenz,Vorarlberg",6900,+43557443085,47.497927,9.730337
A0I8,Austria,440,"Alte Straße 2,Gallneukirchen,Oberösterreich",4210,+43723563715,48.351236,14.410284
A0I9,Austria,441,"Bahnhofstraße 469,Stainach-Pürgg,Steiermark",8950,+43368220852,47.529838,14.101039
A0IA,Austria,442,"Poschacherstraße 11,Mauthausen,Oberösterreich",4310,+4372383960,48.240462,14.525824
A0IB,Austria,443,"Atterseestraße 97,Timelkam,Oberösterreich",4850,+43767293769,47.998249,13.620691
A0IC,Austria,444,"Linzer Straße 50,Vöcklabruck,Oberösterreich",4840,+43767226881,48.002576,13.668946
A0ID,Austria,445,"Viktoria-Weinzierl-Straße 3,Marchtrenk,Oberösterreich",4614,+43724321440,48.189536,14.107504
A0IE,Austria,446,"Böhmer Straße 30,Bad Leonfelden,Oberösterreich",4190,+43721320032,48.526411,14.294224
A0IF,Austria,447,"Hofer Straße 2,Ampflwang im Hausruckwald,Oberösterreich",4843,+43767520490,48.079731,13.565327
A0IG,Austria,448,"Erzherzog-Johann-Straße 779,Schladming,Steiermark",8970,+43368724580,47.394673,13.691398
A0IH,Austria,449,"Behaimstraße 2a,Hall in Tirol,Tirol",6060,+43522344098,47.277604,11.498125
A01L,Austria,45,"Jakominiplatz 12,Graz,Steiermark",8010,+43316837277,47.0676,15.443903
A0II,Austria,450,"Rödlgasse 3,St. Pölten,Niederösterreich",3100,+43274272257,48.18323,15.621201
A0IJ,Austria,451,"Altenmarkt 25,Lurnfeld,Kärnten",9813,+43476933600,46.833408,13.378097
A0IK,Austria,452,"Wirtschaftszeile 4,Rohrbach-Berg,Oberösterreich",4150,+4372894604,48.568585,13.980536
A0IL,Austria,453,"Hainfelder Bundesstraße 3,Traisen,Niederösterreich",3160,+43276263961,48.050699,15.611422
A0IM,Austria,454,"Am Römerfeld 9,Enns,Oberösterreich",4470,+43722381191,48.216311,14.464479
A0IN,Austria,455,"Simmeringer Hauptstraße 96a,Wien,Wien",1110,+4317487112,48.173108,16.415954
A0J0,Austria,456,"Villacher Straße 79-83,Spittal an der Drau,Kärnten",9800,+43476242057,46.792003,13.512698
A0J1,Austria,457,"Bruno-Kreisky-Straße 25,Villach,Kärnten",9500,+434242319706,46.604722,13.860009
A0J2,Austria,458,"Shopping City Seiersberg 3,Seiersberg-Pirka,Steiermark",8055,+43316244978,47.012213,15.41042
A0J3,Austria,459,"Murgasse 5,Graz,Steiermark",8010,+43316831680,47.071118,15.436591
A0J4,Austria,460,"Handelspark 7,Schlüßlberg,Oberösterreich",4707,+43724864650,48.226618,13.849452
A0J5,Austria,461,"Eisenstädter Straße 29/1a,Kittsee,Burgenland",2421,+43214320323,48.086327,17.048954
A0J6,Austria,462,"Kaserngasse 1a,Steyr,Oberösterreich",4400,+43725222613,48.047763,14.415413
A0J7,Austria,463,"Meidlinger Hauptstraße 51-53,Wien,Wien",1120,+4318139594,48.176948,16.330343
A0J8,Austria,464,"Lydia-Sicher-Gasse 1,Wien,Wien",1220,+4312804169,48.225258,16.506328
A0JA,Austria,466,"Carolinenstraße 4,Klagenfurt-Viktring,Kärnten",9073,+43463292741,46.5918,14.272296
A0JB,Austria,467,"Industriezeile 76,Linz,Oberösterreich",4020,+43732609197,48.300602,14.318328
A0JC,Austria,468,"Wiener Straße 28-30,Wiener Neustadt,Niederösterreich",2700,+43262223284,47.814998,16.243913
A0JD,Austria,469,"Mariahilfer Straße 42-48,Wien,Wien",1070,+4315227855,48.199749,16.353538
A01N,Austria,47,"Landstraße 13,Linz,Oberösterreich",4020,+43732774385,48.303798,14.289071
A0JE,Austria,470,"Stadlauer Straße 64,Wien,Wien",1220,+4313430423,48.231116,16.458878
A0JF,Austria,471,"Waagner-Biro-Straße 84,Graz,Steiermark",8020,+43316572305,47.079055,15.411846
A0JG,Austria,472,"Ingeringweg 2,Knittelfeld,Steiermark",8720,+43351286595,47.2105,14.809674
A0JH,Austria,473,"Am Kuhberg 6,Horn,Niederösterreich",3580,+43298260148,48.666064,15.636898
A0JI,Austria,474,"Blütenstraße 13-23,Linz,Oberösterreich",4040,+43732739717,48.314983,14.282968
A0JJ,Austria,475,"Pischeldorfer Straße 144,Klagenfurt am Wörthersee,Kärnten",9020,+43463420158,46.637476,14.332756
A0JK,Austria,476,"Linzer Straße 233,Wien,Wien",1140,+4313431918,48.194541,16.288278
A0JL,Austria,477,"Quadenstraße 29,Wien,Wien",1220,+4313431435,48.237362,16.476495
A0JM,Austria,478,"Am Vorum 3b,Voitsberg,Steiermark",8570,+43314226668,47.052122,15.13634
A0JN,Austria,479,"Rheinstraße 99b,Hard,Vorarlberg",6971,+43557463279,47.477084,9.679311
A0K0,Austria,480,"Stoob-Süd 56,Stoob,Burgenland",7344,+43261242958,47.513726,16.489031
A0K1,Austria,481,"Europastraße 2,Oberwart,Burgenland",7400,+43335231321,47.285329,16.183893
A0K2,Austria,482,"Karl-Steiger-Straße 1,Linz,Oberösterreich",4030,+43732303717,48.253206,14.311845
A0K3,Austria,483,"Badstubenweg 93,Villach,Kärnten",9500,+43424239814,46.629323,13.826172
A0K4,Austria,484,"Thayapark-Straße 1,Waidhofen an der Thaya,Niederösterreich",3830,+43284253640,48.811075,15.273069
A0K5,Austria,485,"Holzstraße 15,Linz,Oberösterreich",4020,+43732286076,48.31023,14.304247
A0K6,Austria,486,"Landstraßer Hauptstraße 157,Wien,Wien",1030,+4313432470,48.1921,16.3997
A0K7,Austria,487,"Innsbruckerstraße 65,Volders,Tirol",6111,+43522456789,47.289461,11.579673
A0K8,Austria,488,"Wiener Straße 96-102,Krems an der Donau,Niederösterreich",3500,+43273272130,48.41628,15.62059
A0K9,Austria,489,"Heiligengeistplatz 4,Klagenfurt am Wörthersee,Kärnten",9020,+43463513477,46.624343,14.304189
A0KA,Austria,490,"Radlpaßstraße 14,Lannach,Steiermark",8502,+43313683040,46.951958,15.340078
A0KB,Austria,491,"Wienerstraße 20,Schwechat,Niederösterreich",2320,+4313437270,48.143009,16.473598
A0KC,Austria,492,"Plus-Kauf-Straße 7,Pasching,Oberösterreich",4061,+43722970870,48.24353,14.23674
A0KD,Austria,493,"Dalistraße 1,Wels,Oberösterreich",4600,+437242206905,48.184742,14.026723
A0KE,Austria,494,"Klagenfurter Straße 35,Wolfsberg,Kärnten",9400,+43435256213,46.8260085,14.8404176
A0KF,Austria,495,"Günter-Bauer-Straße 1,Wals-Siezenheim,Salzburg",5071,+43662851508,47.7936001,12.9873998
A0KG,Austria,496,"Leopoldstraße 1,Dornbirn,Vorarlberg",6850,+435572439075,47.4021742,9.7373522
A0KI,Austria,498,"Ignaz-Dürrer-Straße 14,St. Peter in der Au,Niederösterreich",3352,+43747742639,48.0418064,14.6218294
A005,Austria,5,"Simmeringer Hauptstraße 55,Wien,Wien",1110,+4317498809,48.179063,16.411464
A0KN,Austria,503,"Marktgraben 27,Innsbruck,Tirol",6020,+43512587041,47.267076,11.393098
A0L5,Austria,509,"Obere Landstraße 11,Krems an der Donau,Niederösterreich",3500,+43273285191,48.410675,15.598961
A0MA,Austria,538,"Wiedner Hauptstraße 70,Wien,Wien",1040,+4315876694,48.190023,16.36584
A026,Austria,54,"Bäckergasse 3-5,Wels,Oberösterreich",4600,+43724245456,48.159073,14.024501
A0N7,Austria,559,"Dechant-Wieshoferstraße 9,St. Johann in Tirol,Tirol",6380,+43535263669,47.523033,12.429136
A028,Austria,56,"Stattersdorfer Hauptstraße 44b,St. Pölten,Niederösterreich",3100,+43274221077,48.195938,15.640203
A0N8,Austria,560,"Landstraßer Hauptstraße 61,Wien,Wien",1030,+4317144213,48.201771,16.391796
A0NB,Austria,563,"Julius-Tandler-Platz 8,Wien,Wien",1090,+4313175587,48.225347,16.361279
A0ND,Austria,565,"Maxglaner Hauptstraße 21,Salzburg,Salzburg",5020,+43662827744,47.796776,13.023429
A0NH,Austria,569,"Mariahilfer Straße 108,Wien,Wien",1070,+4315233172,48.196779,16.343641
A10I,Austria,594,"Durster Straße 220,Mayrhofen,Tirol",6290,+43528565020,47.169183,11.865486
A006,Austria,6,"Meidlinger Hauptstraße 19-21,Wien,Wien",1120,+4318121956,48.181017,16.329851
A111,Austria,601,"Rotenturmstraße 12,Wien,Wien",1010,+4315123960,48.210408,16.374685
A112,Austria,602,"Praterstraße 52,Wien,Wien",1020,+4312162306,48.215832,16.386935
A116,Austria,606,"Mariahilfer Straße 20,Wien,Wien",1070,+4315237149,48.201106,16.358259
A119,Austria,609,"Nussdorfer Straße 3,Wien,Wien",1090,+4313176333,48.222791,16.353232
A02D,Austria,61,"Handelskai 94-96,Wien,Wien",1200,+4312409047,48.240956,16.386082
A11G,Austria,616,"Wallensteinstraße 20,Wien,Wien",1200,+4313325340,48.228877,16.369203
A11M,Austria,622,"Pfarrgasse 3,Baden,Niederösterreich",2500,+43225241872,48.008884,16.2345
A120,Austria,624,"Sparkassaplatz 5a,Stockerau,Niederösterreich",2000,+43226663403,48.38574,16.213628
A02F,Austria,63,"Kollingerfeld 7,Micheldorf in Oberösterreich,Oberösterreich",4563,+43758260163,47.89038,14.126608
A12C,Austria,636,"Bichlstraße 16-18,Kitzbühel,Tirol",6370,+43535665046,47.444899,12.392378
A02G,Austria,64,"Landstraßer Hauptstraße 2a,Wien,Wien",1030,+4317145166,48.205666,16.385107
A12K,Austria,644,"Geßlgasse 8,Wien,Wien",1230,+4318887681,48.14864,16.268136
A12M,Austria,646,"Josefstädter Straße 79,Wien,Wien",1080,+4314050331,48.210601,16.34328
A133,Austria,651,"Dr.-Karl-Lueger-Platz 4,Wien,Wien",1010,+4315122961,48.207734,16.379064
A139,Austria,657,"Sieveringer Straße 4-10,Wien,Wien",1190,+4313201097,48.246063,16.340816
A02I,Austria,66,"Dr. Leopold Figl-Gasse 8,Deutsch Wagram,Niederösterreich",2232,+43224720903,48.303839,16.578799
A13K,Austria,668,"Stadtplatz 1,Laa an der Thaya,Niederösterreich",2136,+4325228048,48.720519,16.385868
A144,Austria,676,"Troststraße 57-59,Wien,Wien",1100,+4316047925,48.169681,16.365737
A146,Austria,678,"Ignaz-Köck-Straße 1,Wien,Wien",1210,+4312788160,48.266481,16.398038
A147,Austria,679,"Kaiser Josef-Straße 2,Purkersdorf,Niederösterreich",3002,+43223165442,48.207922,16.175422
A149,Austria,681,"Siemensstraße 37,Rum,Tirol",6063,+43512268473,47.272387,11.450088
A14C,Austria,684,"Straßganger Straße 198,Graz,Steiermark",8052,+43316574415,47.051063,15.394561
A14F,Austria,687,"Altenberger Straße 2,Linz,Oberösterreich",4040,+43732246629,48.330034,14.317854
A14G,Austria,688,"Döblinger Hauptstraße 68,Wien,Wien",1190,+4313682538,48.239281,16.35499
A14K,Austria,692,"Gablenzgasse 5-13,Wien,Wien",1150,+4319823759,48.204002,16.335178
A14L,Austria,693,"Grazer Straße 39,Graz,Steiermark",8045,+43316693010,47.10295,15.420483
A152,Austria,698,"Nonntaler Hauptstraße 55,Salzburg,Salzburg",5020,+43662824374,47.785823,13.05262
A007,Austria,7,"Taborstraße 25,Wien,Wien",1020,+4312144705,48.217387,16.380597
A159,Austria,705,"Lazarettgürtel 55,Graz,Steiermark",8020,+43316710467,47.060553,15.426346
A02N,Austria,71,"Huberstraße 1,Schwanenstadt,Oberösterreich",4690,+43767330105,48.05127,13.76568
A15I,Austria,714,"Gersthofer Straße 16,Wien,Wien",1180,+4314784240,48.233449,16.32814
A15J,Austria,715,"Wiener Gasse 18,Perchtoldsdorf,Niederösterreich",2380,+4318651149,48.120704,16.266691
A15M,Austria,718,"Dr. Adolf Schärf Straße 5,St. Pölten,Niederösterreich",3100,+432742348258,48.223694,15.6372
A030,Austria,72,"Völkermarkter Straße 36,St. Veit an der Glan,Kärnten",9300,+43421228704,46.765396,14.369259
A161,Austria,721,"Wiener Straße 35A,Kapfenberg,Steiermark",8605,+43386227940,47.443945,15.291127
A162,Austria,722,"Bahnhofstraße 10-12,Bregenz,Vorarlberg",6900,+43557443527,47.50405,9.744908
A165,Austria,725,"Hietzinger Hauptstraße 141,Wien,Wien",1130,+4318763358,48.187741,16.268762
A16E,Austria,734,"Schloßhofer Straße 13-15,Wien,Wien",1210,+4312713907,48.257569,16.400393
A16F,Austria,735,"Pilgramgasse 11-13,Wien,Wien",1050,+4315455292,48.192224,16.3558341
A16G,Austria,736,"Alpenstraße 48,Salzburg,Salzburg",5020,+43662628534,47.786354,13.066003
A16H,Austria,737,"Mexikoplatz 16-17,Wien,Wien",1020,+4317298206,48.223341,16.404963
A171,Austria,745,"Resthofstraße 23B,Steyr,Oberösterreich",4400,+43725283616,48.054389,14.422791
A033,Austria,75,"Hauptstraße 37,Eisenstadt,Burgenland",7000,+43268264615,47.846761,16.524769
A179,Austria,753,"Fürbergstraße 18-20,Salzburg,Salzburg",5020,+43662650958,47.808504,13.065474
A034,Austria,76,"Harderstraße 54,Lauterach,Vorarlberg",6923,+43557489482,47.483891,9.720128
A17J,Austria,763,"Technikerstraße 32,Innsbruck,Tirol",6020,+43512295306,47.265367,11.34829
A17L,Austria,765,"Billrothstraße 37,Wien,Wien",1190,+4313678748,48.237202,16.348802
A181,Austria,769,"Hauptstraße 60,Tullnerbach,Niederösterreich",3013,+43223356575,48.184176,16.091892
A035,Austria,77,"Goldenberg 32,Pupping,Oberösterreich",4070,+4372723369,48.302808,14.031291
A184,Austria,772,"Leogangerstraße 18,Saalfelden am Steinernen Meer,Salzburg",5760,+43658272127,47.430195,12.84279
A186,Austria,774,"Bahnstrasse 16a,Aspang-Markt,Niederösterreich",2870,+43264251355,47.557224,16.093055
A187,Austria,775,"Hermann-Gmeiner-Straße 1,Klagenfurt am Wörthersee,Kärnten",9020,+43463357607,46.625533,14.341358
A18A,Austria,778,"Römerstraße 3,Eugendorf,Salzburg",5301,+4362252504,47.860065,13.125784
A18B,Austria,779,"Dr.-Reinhard-Machold-Straße 4,St. Lorenzen im Mürztal,Steiermark",8642,+43386231362,47.469479,15.344845
A036,Austria,78,"St.-Peter-Gürtel 10,Graz,Steiermark",8042,+43316409018,47.035853,15.483788
A18D,Austria,781,"Lainzer Straße 134,Wien,Wien",1130,+4318031970,48.17756,16.283591
A18F,Austria,783,"Hütteldorfer Straße 119,Wien,Wien",1140,+4319827473,48.198931,16.311853
A18I,Austria,786,"Joseph-Mohr-Straße 2,Oberndorf bei Salzburg,Salzburg",5110,+4362726730,47.94334,12.942884
A18J,Austria,787,"Emmerich-Berger-Straße 11,Gmünd,Niederösterreich",3950,+43285254482,48.765381,14.978673
A18L,Austria,789,"Bodenzeile 5B,Gänserndorf,Niederösterreich",2230,+4322823400,48.334463,16.715076
A037,Austria,79,"Baudißgasse 4,Wien,Wien",1110,+4317682136,48.14639,16.461111
A18N,Austria,791,"Landstraße 46,Linz,Oberösterreich",4020,+43732773433,48.300507,14.290634
A038,Austria,80,"Hauptstraße 47,St. Johann im Pongau,Salzburg",5600,+4364126265,47.347744,13.201709
A199,Austria,801,"Stadtplatz 5a,Leonding,Oberösterreich",4060,+43732677146,48.279951,14.2487
A19C,Austria,804,"Währinger Straße 103,Wien,Wien",1180,+4314058907,48.226414,16.343176
A19D,Austria,805,"Mühldorf 465,Feldbach,Steiermark",8330,+43315237006,46.948765,15.915542
A19F,Austria,807,"Arena am Waldfeld 17,Fohnsdorf,Steiermark",8753,+43357246694,47.184329,14.679145
A19H,Austria,809,"Ferdinand Hanusch-Straße 1,Leoben,Steiermark",8700,+43384229509,47.371828,15.088536
A039,Austria,81,"Industriezone 34a,Imst,Tirol",6460,+43541264568,47.218981,10.732554
A19J,Austria,811,"Frauentaler Straße 83,Deutschlandsberg,Steiermark",8530,+43346230260,46.820497,15.229133
A19L,Austria,813,"Hauptstraße 4,Seekirchen am Wallersee,Salzburg",5201,+43621230277,47.891662,13.126919
A19M,Austria,814,"Industriestraße 3,Friesach,Kärnten",9360,+43426837322,46.951915,14.413757
A1A1,Austria,817,"Walbersdorf Bundesstraße 50,Mattersburg,Burgenland",7210,+43262667623,47.729443,16.412877
A1A3,Austria,819,"Auweg 6,Ansfelden,Oberösterreich",4052,+43722978199,48.215495,14.276045
A1A5,Austria,821,"Badnerstraße 102,Bad Vöslau,Niederösterreich",2540,+432252790370,47.977144,16.219842
A03B,Austria,83,"Herzog Albrecht-Straße 1-3,Mistelbach,Niederösterreich",2130,+4325724830,48.568378,16.592717
A1AI,Austria,834,"Durchlaßstraße 10,Klagenfurt am Wörthersee,Kärnten",9020,+43463481378,46.635373,14.315421
A1AK,Austria,836,"Guglgasse 6,Wien,Wien",1110,+4317437857,48.185161,16.418726
A1B0,Austria,840,"Alser Straße 10,Wien,Wien",1090,+4314080686,48.215232,16.350114
A1B5,Austria,845,"Wiener Straße 12,Groß-Enzersdorf,Niederösterreich",2301,+43224928234,48.206729,16.547439
A1B7,Austria,847,"Europastraße 5,Leobersdorf,Niederösterreich",2544,+43225620380,47.930393,16.204936
A1B8,Austria,848,"Gartenstraße 14,Mattighofen,Oberösterreich",5230,+4377425250,48.107533,13.150794
A1B9,Austria,849,"Kärntner Ring 2,Wien,Wien",1010,+4315041343,48.201966,16.370062
A1BB,Austria,851,"Bruggfeldstraße 7a,Landeck,Tirol",6500,+43544267524,47.142018,10.560927
A1BF,Austria,855,"Europastraße 15,Langenrohr,Niederösterreich",3442,+43227265780,48.317686,16.017422
A1BG,Austria,856,"Kornstraße 14,Leonding,Oberösterreich",4060,+43732672167,48.257942,14.254663
A1BI,Austria,858,"Werdenbergerstraße 34,Bludenz,Vorarlberg",6700,+43555262190,47.156053,9.820011
A1BJ,Austria,859,"Forstauer Straße 2,Radstadt,Salzburg",5550,+4364525113,47.377211,13.474903
A1BK,Austria,860,"Sandleitengasse 41,Wien,Wien",1160,+4314892744,48.220174,16.30691
A1BM,Austria,862,"Grazer Straße 11,Hausmannstätten,Steiermark",8071,+43313547801,46.992653,15.505982
A1BN,Austria,863,"Salzburgerstraße 29,St. Johann in Tirol,Tirol",6380,+43535262560,47.528949,12.426502
A1C0,Austria,864,"Pfarrgasse 5,Bad Ischl,Oberösterreich",4820,+43613223004,47.71083,13.621776
A1C2,Austria,866,"Bahnhofstraße 4,Bischofshofen,Salzburg",5500,+4364623170,47.415856,13.218903
A03F,Austria,87,"Hauptplatz 8,Amstetten,Niederösterreich",3300,+43747262665,48.123068,14.873079
A1C6,Austria,870,"Ludwig-Binder-Straße 22,Gleisdorf,Steiermark",8200,+43311236633,47.105625,15.704755
A1C9,Austria,873,"Kapellenstraße 1,Lustenau,Vorarlberg",6890,+43557786829,47.430488,9.660972
A1CC,Austria,876,"Hannesgrub Nord 2/2,Tumeltsham,Oberösterreich",4911,+43775281215,48.221424,13.497533
A1CH,Austria,881,"Cytastraße 14,Völs,Tirol",6176,+43512302875,47.258948,11.323407
A1CJ,Austria,883,"Reichsstraße 126,Feldkirch,Vorarlberg",6800,+43552284402,47.248753,9.609713
A1CK,Austria,884,"Kaufpark 4,Walding,Oberösterreich",4111,+43723484705,48.345276,14.161175
A1D0,Austria,888,"Favoritenstraße 130,Wien,Wien",1100,+4316044330,48.175224,16.377647
A1D2,Austria,890,"Gottlieb-Daimler-Straße 2,Amstetten,Niederösterreich",3300,+43747223002,48.106956,14.83208
A1D4,Austria,892,"Wiener Straße 13-15,Mürzzuschlag,Steiermark",8680,+4338525474,47.605922,15.673078
A1D7,Austria,895,"Stadtplatz 32,Vöcklabruck,Oberösterreich",4840,+43767225451,48.007791,13.653901
A1D9,Austria,897,"Ötztaler Höhe 11,Haiming,Tirol",6430,+43526688177,47.230497,10.856032
A1DA,Austria,898,"Thaliastraße 28,Wien,Wien",1160,+4314098573,48.209295,16.33476
A1DB,Austria,899,"Stadtplatz 32,Klosterneuburg,Niederösterreich",3400,+43224330471,48.30917,16.323742
A03I,Austria,90,"Flugplatzstraße 4,Zell am See,Salzburg",5700,+43654253956,47.297247,12.786508
A1DI,Austria,906,"Murfeldstraße 4,Gratwein-Straßengel,Steiermark",8112,+43312452397,47.133797,15.322249
A1DJ,Austria,907,"Im Buch 42,Götzis,Vorarlberg",6840,+43552351397,47.33996,9.652889
A1DK,Austria,908,"Südtiroler Platz 13,Salzburg,Salzburg",5020,+43662456316,47.814506,13.045369
A1DL,Austria,909,"Helmholtzstraße 15,Linz,Oberösterreich",4020,+43732381241,48.256402,14.286858
A03J,Austria,91,"An der Leiten 14,Vomp,Tirol",6134,+43524272684,47.351169,11.696858
A1DM,Austria,910,"Eco Plus Park 4. Straße 4,Bruck an der Leitha,Niederösterreich",2460,+43216265606,48.034817,16.809517
A1E0,Austria,912,"B 1 Center 4,Ybbs an der Donau,Niederösterreich",3370,+43741258851,48.161945,15.105788
A1E2,Austria,914,"Technologiepark 58,Jennersdorf,Burgenland",8380,+43332945782,46.939623,16.152238
A1E3,Austria,915,"Pulverstraße 1,Trofaiach,Steiermark",8793,+4338473375,47.424578,15.002922
A1E4,Austria,916,"Bahnhofplatz 1,Wolfsberg,Kärnten",9400,+4343524248,46.842672,14.840638
A1E5,Austria,917,"Anton-Baumgartner-Straße 40,Wien,Wien",1230,+4316651084,48.152221,16.318889
A1E6,Austria,918,"Breitenfurter Straße 372-380,Wien,Wien",1230,+4318672424,48.137078,16.279155
A1E7,Austria,919,"Florianigasse 2,Neulengbach,Niederösterreich",3040,+43277255481,48.200876,15.900125
A03K,Austria,92,"Hof 15,Alberschwende,Vorarlberg",6861,+43557983033,47.450775,9.834894
A1E8,Austria,920,"Bahnhofplatz 9,Bad Hall,Oberösterreich",4540,+43725850208,48.03712,14.210486
A1EA,Austria,922,"Schraubenwerkstraße 1,Neunkirchen,Niederösterreich",2620,+43263562362,47.723532,16.078856
A1EB,Austria,923,"Oberer Flözerweg 10,Traun,Oberösterreich",4050,+43722963477,48.23481,14.237084
A1EC,Austria,924,"Bundesstraße 34,Zeltweg,Steiermark",8740,+43357726612,47.194966,14.740748
A1EG,Austria,928,"Othmar-Spanlang-Straße 3,Schärding,Oberösterreich",4780,+43771235762,48.446531,13.441235
A03L,Austria,93,"Almteilweg 1,Bürs,Vorarlberg",6706,+43555233671,47.151167,9.811658
A1EI,Austria,930,"Brünner Straße 184,Wien,Wien",1210,+4312900872,48.283229,16.413414
A1EK,Austria,932,"Hauptstraße 55,Mödling,Niederösterreich",2340,+432236864787,48.086021,16.288537
A1EM,Austria,934,"Kaplanweg 14,Weiz,Steiermark",8160,+43317230126,47.207562,15.637717
A1EN,Austria,935,"Wagramer Straße 81,Wien,Wien",1220,+4312037133,48.242424,16.435289
A1F0,Austria,936,"Am Treffner Feld 4,Treffen am Ossiacher See,Kärnten",9521,+43424824613,46.65137,13.874097
A1F1,Austria,937,"Europaplatz 2,Wien,Wien",1150,+4318920833,48.196215,16.337911
A03M,Austria,94,"Südring 223,Klagenfurt am Wörthersee,Kärnten",9020,+43463230139,46.607925,14.293164
A1F4,Austria,940,"G3 Platz 1,Gerasdorf bei Wien,Niederösterreich",2201,+43224627711,48.345439,16.462816
A1F6,Austria,942,"Hauptstraße 9,Gloggnitz,Niederösterreich",2640,+43266245521,47.675833,15.937778
A1F7,Austria,943,"Fichtenhainstr. 2,Velden am Wörther See,Kärnten",9220,+43427450665,46.604573,14.035091
A1F8,Austria,944,"Dreifaltigkeitsgasse 18,Salzburg,Salzburg",5020,+43662878136,47.804076,13.044228
A1F9,Austria,945,"Grazerstraße 18a,Fürstenfeld,Steiermark",8280,+43338252963,47.059882,16.066002
A1FA,Austria,946,"Haidäckerpark 3,Eisenstadt,Burgenland",7000,+43268261355,47.826664,16.523085
A1FB,Austria,947,"Kurhausplatz 55,Bad Aussee,Steiermark",8990,+43362252057,47.60996,13.783529
A1FC,Austria,948,"Andreas-Hofer-Straße 10,Schwaz,Tirol",6130,+43524264993,47.347898,11.707242
A1FD,Austria,949,"Obermarkt 38,Reutte,Tirol",6600,+43567263465,47.485501,10.720483
A1FE,Austria,950,"Handelsring 8-10,Asten,Oberösterreich",4481,+43722466331,48.219944,14.407518
A1FF,Austria,951,"Linzer Gasse 17,Salzburg,Salzburg",5020,+43662875592,47.80296,13.046326
A1FG,Austria,952,"Märzstraße 37,Wien,Wien",1150,+4317862351,48.198495,16.329491
A1FH,Austria,953,"Glocknerstraße 1,Nußdorf-Debant,Tirol",9990,+43485261960,46.831129,12.799998
A1FI,Austria,954,"Kuenburgstraße 7,Tamsweg,Salzburg",5580,+4364746906,47.12841,13.811213
A1FJ,Austria,955,"Radkersburger Straße 21,Bad Gleichenberg,Steiermark",8344,+43315941740,46.867722,15.902941
A1FK,Austria,956,"Mitterweg 69,Innsbruck,Tirol",6020,+43512282833,47.257168,11.36873
A1FM,Austria,958,"Aigner Straße 48,Salzburg,Salzburg",5020,+43662625391,47.790702,13.074125
A1FN,Austria,959,"Kletzlgutweg 2c,Hallein,Salzburg",5400,+43624570121,47.684936,13.104749
A040,Austria,96,"Wiener Neustädter Straße 40,Ebreichsdorf,Niederösterreich",2483,+43225476244,47.955267,16.402905
A1G0,Austria,960,"Dresdner Straße 38-40,Wien,Wien",1200,+4313303584,48.238746,16.376835
H001,Bosnia and Herzegovina,1,"Dobrinjske bolnice 12,Sarajevo,FBiH",71000,+38733766135,43.8296618,18.3450051
H00A,Bosnia and Herzegovina,10,"Aleja Šehida bb,Zenica,FBiH",72000,+38732201250,44.2030746,17.913648
H045,Bosnia and Herzegovina,101,"Mehmeda Spahe bb,Novi Travnik,FBiH",72290,+38730508012,44.1699078,17.654336
H046,Bosnia and Herzegovina,102,"Tešanjka bb,Usora,FBiH",74230,+38732206467,44.6754083,18.0147385
H048,Bosnia and Herzegovina,104,"Branilaca Bosne bb,Visoko,FBiH",71300,+38732206207,43.9920986,18.1772209
H04A,Bosnia and Herzegovina,106,"Unska bb,Bosanska Krupa,FBiH",77240,+38737316287,44.89414,16.154824
H04B,Bosnia and Herzegovina,107,"Bijeljinska bb,Brčko,Brčko Distrikt",76100,+38749490906,44.8615969,18.8277239
H04D,Bosnia and Herzegovina,109,"Mostarsko raskršće 10,Blažuj,FBiH",71215,+38733764772,43.846756,18.241804
H04E,Bosnia and Herzegovina,110,"Prvog Krajiškog korpusa bb,Banja Luka,Republika Srpska",78000,+38751492143,44.7771172,17.1929702
H04G,Bosnia and Herzegovina,112,"Husinskih rudara bb,Tuzla,FBiH",75000,+38735367250,44.525332,18.627936
H04H,Bosnia and Herzegovina,113,"Sarajevska ulica bb,Gradačac,FBiH",76250,+38735367253,44.8934785,18.4239345
H04I,Bosnia and Herzegovina,114,"Univerzitetska 16,Tuzla,FBiH",75000,+38735311000,44.5384616,18.6642148
H04K,Bosnia and Herzegovina,116,"Nemanjina bb,Laktaši,Republika Srpska",78250,+38751490213,44.908324,17.3083032
H04L,Bosnia and Herzegovina,117,"Katarine Zrinske bb,Posušje,FBiH",88240,+38739683786,43.4698205,17.3266334
H04M,Bosnia and Herzegovina,118,"Zaobilaznica bb,Bihać,FBiH",77000,+38737539415,44.8258333,15.8798606
H04N,Bosnia and Herzegovina,119,"Armije BiH bb,Tuzla,FBiH",75000,+38735360691,44.5368336,18.6974946
H00C,Bosnia and Herzegovina,12,"Bosanska 6,Bugojno,FBiH",70230,+38730260380,44.05562,17.447
H054,Bosnia and Herzegovina,124,"Žrtava srebreničkog genocida bb,Bihać,FBiH",77000,+38737316664,44.8196171,15.8526267
H058,Bosnia and Herzegovina,128,"Karakaj 87 A,Zvornik,Republika Srpska",75400,+38756745761,44.405318,19.1208818
H00D,Bosnia and Herzegovina,13,"Bana Josipa Jelačića 54,Kiseljak,FBiH",71250,+38730877340,43.94349,18.07693
H00E,Bosnia and Herzegovina,14,"Grbavička 40,Sarajevo,FBiH",71000,+38733719225,43.8512514,18.3954576
H00F,Bosnia and Herzegovina,15,"Maršala Tita bb,Konjic,FBiH",88400,+38736734630,43.6533121,17.962418
H00G,Bosnia and Herzegovina,16,"Trg srpskih boraca bb,Prnjavor,Republika Srpska",78430,+38751640950,44.86928,17.66243
H00I,Bosnia and Herzegovina,18,"Poslovni centar 96,Vitez,FBiH",72250,+38730717282,44.1701729,17.7829301
H00K,Bosnia and Herzegovina,20,"Butmirska cesta 14,Ilidža,FBiH",71210,+38733764760,43.82966,18.31232
H00M,Bosnia and Herzegovina,22,"Vojvode Radomira Putnika bb,Lukavica,Republika Srpska",71126,+38757311230,43.8241,18.36235
H011,Bosnia and Herzegovina,25,"Trg djece Sarajeva 1,Sarajevo,FBiH",71000,+38733259305,43.85854,18.41698
H012,Bosnia and Herzegovina,26,"Trg dr. Ante Starčevića 4,Široki Brijeg,FBiH",88220,+38739700037,43.38185,17.59176
H013,Bosnia and Herzegovina,27,"Gabrijela Jurkića 4,Livno,FBiH",80101,+38734208124,43.8255951,17.0050576
H014,Bosnia and Herzegovina,28,"Svetosavska bb,Kozarska Dubica,Republika Srpska",79240,+38752483132,45.181656,16.809851
H003,Bosnia and Herzegovina,3,"Kneza Branimira 2,Mostar,FBiH",88000,+38736334339,43.3412537,17.8015024
H016,Bosnia and Herzegovina,30,"Kralja Petra I Karađorđevića 81,Banja Luka,Republika Srpska",78000,+38751223470,44.768221,17.187322
H017,Bosnia and Herzegovina,31,"Dragoje Lukića 1,Gradiška,Republika Srpska",78400,+38751826020,45.1459734,17.2503296
H019,Bosnia and Herzegovina,33,"Alije Izetbegovića bb,Gračanica,FBiH",75320,+38735700295,44.7049,18.31074
H01A,Bosnia and Herzegovina,34,"Džemala Bijedića 39,Sarajevo,FBiH",71000,+38733730430,43.8496655,18.3674876
H01B,Bosnia and Herzegovina,35,"Bulevar Franca Lehara 2,Sarajevo,FBiH",71000,+38733592535,43.8564593,18.406429
H01F,Bosnia and Herzegovina,39,"Hrvatske mladeži 4,Mostar,FBiH",88000,+38736333710,43.3492312,17.7975395
H004,Bosnia and Herzegovina,4,"Ferhadija 25,Sarajevo,FBiH",71000,+38733572115,43.85934,18.42692
H01G,Bosnia and Herzegovina,40,"Veselina Masleše 4,Banja Luka,Republika Srpska",78000,+38751230740,44.7705422,17.1900234
H01H,Bosnia and Herzegovina,41,"Kardinala Stepinca 29,Međugorje,FBiH",88266,+38736653973,43.19564,17.67597
H01I,Bosnia and Herzegovina,42,"Trg Zlatnih Ljiljana bb,Cazin,FBiH",77220,+38737510111,44.9649447,15.9394582
H01J,Bosnia and Herzegovina,43,"Ulica XIV 97,Orašje,FBiH",76270,+38731719490,45.026009,18.699734
H01K,Bosnia and Herzegovina,44,"Trg Kralja Petra I Karađorđevića 1,Bijeljina,Republika Srpska",76300,+38755220440,44.75733,19.21523
H01L,Bosnia and Herzegovina,45,"Kneza Višeslava i Kardinal Stepinca bb,Mostar,FBiH",88000,+38736333382,43.34847,17.80478
H01M,Bosnia and Herzegovina,46,"Vuka Karadžića bb,Pale,Republika Srpska",71420,+38757202950,43.8144,18.57056
H01N,Bosnia and Herzegovina,47,"Dubrovački put 1,Trebinje,Republika Srpska",89101,+38759270240,42.70877,18.35058
H020,Bosnia and Herzegovina,48,"119. muslimanske brdske brigade 19,Banovići,FBiH",75290,+38735871110,44.4055992,18.5262543
H005,Bosnia and Herzegovina,5,"Trg Alije Izetbegovića 65,Zenica,FBiH",72000,+38732201150,44.1996431,17.9102334
H022,Bosnia and Herzegovina,50,"Jovana Dučića 25,Banja Luka,Republika Srpska",78000,+38751322110,44.77714,17.18594
H023,Bosnia and Herzegovina,51,"Rustem-pašina 9,Ilidža,FBiH",71210,+38733761450,43.8309,18.3072
H024,Bosnia and Herzegovina,52,"Metkovačka bb,Čapljina,FBiH",88300,+38736810505,43.1089194,17.7008416
H025,Bosnia and Herzegovina,53,"Kurta Schorka 24 A,Sarajevo,FBiH",71000,+38733761420,43.835033,18.328151
H026,Bosnia and Herzegovina,54,"Koševo 8,Sarajevo,FBiH",71000,+38733267245,43.8602861,18.4143523
H027,Bosnia and Herzegovina,55,"Vrbanja 1,Sarajevo,FBiH",71000,+38733733060,43.85532,18.40698
H028,Bosnia and Herzegovina,56,"Prijedorska bb,Sanski Most,FBiH",79260,+38737689579,44.765885,16.662069
H029,Bosnia and Herzegovina,57,"Splitska 60,Tomislavgrad,FBiH",80240,+38734358060,43.703572,17.21077
H02B,Bosnia and Herzegovina,59,"Pijeskovi bb,Doboj,Republika Srpska",74000,+38753204000,44.7402,18.0946
H02D,Bosnia and Herzegovina,61,"Ferida Dizdarevića 3,Goražde,FBiH",73000,+38738240250,43.664525,18.97615
H02F,Bosnia and Herzegovina,63,"Bosanska 6,Bihać,FBiH",77000,+38737228010,44.814839,15.869117
H02G,Bosnia and Herzegovina,64,"Sremska bb,Bijeljina,Republika Srpska",76300,+38755294080,44.7627328,19.2063868
H02H,Bosnia and Herzegovina,65,"Alipašina 45b,Sarajevo,FBiH",71000,+38733558745,43.867447,18.408972
H02I,Bosnia and Herzegovina,66,"Mitra Trifunovića 2,Tuzla,FBiH",75000,+38735310900,44.532278,18.651694
H02K,Bosnia and Herzegovina,68,"Ložionička 16,Sarajevo,FBiH",71000,+38733713020,43.857286,18.383183
H007,Bosnia and Herzegovina,7,"Trg solidarnosti 2,Sarajevo,FBiH",71000,+38733769120,43.846643,18.3525157
H02M,Bosnia and Herzegovina,70,"Branka Popovića 310,Banja Luka,Republika Srpska",78000,+38751378311,44.8181358,17.2165624
H02N,Bosnia and Herzegovina,71,"Aleja Svetog Save 69,Banja Luka,Republika Srpska",78000,+38751320451,44.7749556,17.205995
H030,Bosnia and Herzegovina,72,"Alije Izetbegovića bb,Kakanj,FBiH",72240,+38732552051,44.1311794,18.1204971
H031,Bosnia and Herzegovina,73,"Hrvatskih branitelja 69,Ljubuški,FBiH",88320,+38739830628,43.1989,17.5473
H032,Bosnia and Herzegovina,74,"Branilaca grada bb,Gračanica,FBiH",75320,+38735708601,44.6870542,18.3083198
H033,Bosnia and Herzegovina,75,"Magistralni put M-17 5,Mostar,FBiH",88000,+38736555800,43.3649,17.8218
H034,Bosnia and Herzegovina,76,"Mala Lisa bb,Cazin,FBiH",77220,+38737316885,44.965629,15.90833
H035,Bosnia and Herzegovina,77,"Kninska 1,Derventa,Republika Srpska",74400,+38753490481,44.983329,17.928009
H036,Bosnia and Herzegovina,78,"Svetog Save 3,Zvornik,Republika Srpska",75400,+38756490877,44.3850108,19.103493
H037,Bosnia and Herzegovina,79,"II Korpusa Armije BiH bb,Tuzla,FBiH",75000,+38735315010,44.532736,18.68354
H038,Bosnia and Herzegovina,80,"Džemala Bijedića 160,Sarajevo,FBiH",71000,+38733246481,43.85069,18.354012
H039,Bosnia and Herzegovina,81,"I ulica bb,Živinice,FBiH",75270,+38735368270,44.456031,18.642123
H03A,Bosnia and Herzegovina,82,"1. maja 63,Prijedor,Republika Srpska",79101,+38752490506,44.9770338,16.7271228
H03B,Bosnia and Herzegovina,83,"Ruđera Boškovića bb,Neum,FBiH",88390,+38736885400,42.92817,17.61006
H03C,Bosnia and Herzegovina,84,"Slavka Jelice Švabe bb,Jajce,FBiH",70101,+38730719186,44.339454,17.264798
H03D,Bosnia and Herzegovina,85,"Zmaja od Bosne 2,Zenica,FBiH",72000,+38732206820,44.205499,17.90292
H03E,Bosnia and Herzegovina,86,"Mostar Bišće bb,Mostar,FBiH",88000,+38736281519,43.307229,17.830251
H03F,Bosnia and Herzegovina,87,"Lukavačkih brigada bb,Lukavac,FBiH",75300,+38735368273,44.53089,18.53122
H03G,Bosnia and Herzegovina,88,"Bosanska bb,Travnik,FBiH",72270,+38730509713,44.2267237,17.6612567
H009,Bosnia and Herzegovina,9,"Braće Fejića bb,Mostar,FBiH",88000,+38736555225,43.3426765,17.8128592
H03I,Bosnia and Herzegovina,90,"Marije Dimića 7/A,Banja Luka,Republika Srpska",78000,+38751490550,44.790153,17.19782
H03J,Bosnia and Herzegovina,91,"16. krajiške brigade i Gavrila Principa 2A,Gradiška,Republika Srpska",78400,+38751490211,45.1396762,17.2582506
H03K,Bosnia and Herzegovina,92,"Trg Majora Zorana Karlice 3,Prijedor,Republika Srpska",79000,+38752490118,44.979709,16.709851
H03L,Bosnia and Herzegovina,93,"1. Maja bb,Velika Kladuša,FBiH",77230,+38737316495,45.1786976,15.8106496
H03M,Bosnia and Herzegovina,94,"Hrvatskih branitelja 21,Grude,FBiH",88340,+38739663860,43.3648152,17.4254134
H03N,Bosnia and Herzegovina,95,"Ivana Gorana Kovačića bb,Banja Luka,Republika Srpska",78000,+38751490060,44.789322,17.2039119
H040,Bosnia and Herzegovina,96,"Džemala Bijedića 2,Sarajevo,FBiH",71000,+38733764763,43.8517684,18.3781723
H041,Bosnia and Herzegovina,97,"Bulevar mira 5,Brčko,Brčko Distrikt",76000,+38749235293,44.8761935,18.812431
H042,Bosnia and Herzegovina,98,"Džemala Bijedića 279 J,Sarajevo,FBiH",71000,+38733455224,43.8404286,18.3230834
H043,Bosnia and Herzegovina,99,"Nikole Tesle 26,Doboj,Republika Srpska",74000,+38753205253,44.7201096,18.0827156
P05B,Czechia,131,"Husovo náměstí 36,Beroun,STREDOCESKY",266 01,+420311626922,49.9640616,14.0721656
P05H,Czechia,137,"Nábřeží Dr. Beneše 255,Rakovník,STREDOCESKY",269 01,+420313515587,50.1010373,13.7315038
P060,Czechia,144,"Vodní 53/5,Kroměříž,ZLINSKY",767 01,+420573335766,49.29873,17.39484
P062,Czechia,146,"Kmochova 3156,Varnsdorf,USTECKY",407 47,+420412371752,50.90913,14.6184
P065,Czechia,149,"Vodičkova 699/30,Praha,HL.M.PRAHA",110 00,+420224215989,50.08103,14.42465
P066,Czechia,150,"Novobranská 544/1,Brno,JIHOMORAVSKY",602 00,+420542217319,49.19497,16.61303
P068,Czechia,152,"Šantrochova 1883/16,Praha,HL.M.PRAHA",162 00,+420235357152,50.08892,14.34938
P069,Czechia,153,"Krajinská 1/35,České Budějovice,JIHOCESKY",370 01,+420387315715,48.97545,14.47333
P06G,Czechia,160,"Starostrašnická 1088/22,Praha,HL.M.PRAHA",100 00,+420274822843,50.07467,14.49044
P071,Czechia,169,"Makovského 1349/2a,Praha,HL.M.PRAHA",163 00,+420235302740,50.06486,14.30858
P073,Czechia,171,"U dálnice 777,Modřice,JIHOMORAVSKY",664 42,+420547216939,49.1375685,16.6338371
P075,Czechia,173,"Štefánikova 256/34,Praha,HL.M.PRAHA",150 00,+420257323002,50.07598,14.40417
P077,Czechia,175,"Francouzská 171/28,Praha,HL.M.PRAHA",120 00,+420222517645,50.07328,14.44057
P07F,Czechia,183,"Karlovo náměstí 292/14,Praha,HL.M.PRAHA",120 00,+420224923067,50.07658,14.4191
P07H,Czechia,185,"Hlavní třída 288/10,Šumperk,OLOMOUCKY",787 01,+420583211325,49.96558,16.97582
P07K,Czechia,188,"Švehlova 1391/32,Praha,HL.M.PRAHA",102 00,+420271750237,50.05328,14.51719
P080,Czechia,192,"Benešova 1314/6,Jihlava,VYSOCINA",586 02,+420567331323,49.39645,15.58848
P088,Czechia,200,"Janovského 978/9,Praha,HL.M.PRAHA",170 00,+420220875812,50.09909,14.43435
P08A,Czechia,202,"Vinohradská 2828/151,Praha,HL.M.PRAHA",130 00,+420222732012,50.07887,14.46115
P08C,Czechia,204,"Horní 26,Frenštát pod Radhoštěm,MORAVSKOSLEZ",744 01,+420556840860,49.546676,18.2129496
P08E,Czechia,206,"Smetanovo náměstí 77,Litomyšl,PARDUBICKY",570 01,+420461616604,49.86918,16.31186
P08I,Czechia,210,"Nákupní 389/3,Praha,HL.M.PRAHA",102 00,+420272706530,50.07251,14.54213
P08L,Czechia,213,"9. května 697/18,Tábor,JIHOCESKY",390 01,+420381257166,49.41269,14.6703
P091,Czechia,217,"M. Horákové 609/60,Praha,HL.M.PRAHA",170 00,+420233380372,50.10011,14.42503
P094,Czechia,220,"Sofijské náměstí 3405/2,Praha,HL.M.PRAHA",143 00,+420244404055,50.00599,14.4172
P099,Czechia,225,"5. května 719/9,Nový Jičín,MORAVSKOSLEZ",741 01,+420556704953,49.59608,18.0097
P09B,Czechia,227,"Písecká 972/1,Plzeň,PLZENSKY",326 00,+420377458071,49.7010448,13.4251416
P09D,Czechia,229,"Dlouhá třída 860/1a,Havířov,MORAVSKOSLEZ",736 01,+420596891184,49.7807032,18.4316123
P09G,Czechia,232,"Bělohorská 212/130,Praha,HL.M.PRAHA",160 00,+420233359351,50.08389,14.36392
P09I,Czechia,234,"Pražská 1247/24,České Budějovice,JIHOCESKY",370 04,+420387313610,48.9844,14.47204
P09J,Czechia,235,"Ostravská 1923/3,Hlučín,MORAVSKOSLEZ",748 01,+420595046006,49.89697,18.18842
P09K,Czechia,236,"Cimburkova 540/4,Brno,JIHOMORAVSKY",612 00,+420549210296,49.2173997,16.6084513
P09N,Czechia,239,"Ve Vaňkovce 462/1,Brno,JIHOMORAVSKY",602 00,+420543213614,49.18884,16.61375
P0A1,Czechia,241,"Radlická 520/117,Praha,HL.M.PRAHA",158 00,+420251616794,50.0470409,14.3553613
P0A4,Czechia,244,"Masarykovo náměstí 156,Uherské Hradiště,ZLINSKY",686 01,+420572501095,49.06872,17.4617
P0A5,Czechia,245,"Tyršovo nábřeží 5496,Zlín,ZLINSKY",760 01,+420577019673,49.2290362,17.6618402
P0A6,Czechia,246,"Roztylská 2321/19,Praha,HL.M.PRAHA",148 00,+420272075117,50.0312073,14.4902742
P0AD,Czechia,253,"Zbrojnická 114/6,Plzeň,PLZENSKY",301 00,+420377224483,49.74621,13.37914
P0AE,Czechia,254,"Lannova 1595/29a,České Budějovice,JIHOCESKY",370 01,+420386354605,48.97461,14.48306
