CITY, STATE, COUNTRY, LATITUDE, LONGITUDE, OFFSET, DST, Regulation_14, Regulation_13
Aabenraa, South Denmark, Denmark, 55.04, 9.42, 1, False, True, False
Laâyoune, Western Sahara, Morocco, 27.07, -13.47, 0, True, False, False
Aalborg, North Jutland, Denmark, 57.05, 9.92, 1, False, True, False
Aalborg, North Denmark Region, Denmark, 57.05, 10.06, 1, False, True, False
Aalborg, North Jutland, Denmark, 57.06, 10.05, 1, False, True, False
Aalborg, North Jutland, Denmark, 57.06, 9.96, 1, False, True, False
Aarhus, Aarhus, Denmark, 56.16, 10.24, 1, False, True, False
Abadan, Khuzestan, Iran, 30.34, 48.27, 3, False, False, False
Abbot Point, Queensland, Australia, -19.86, 148.09, 10, False, False, False
Aberdeen, Scotland, U.K., 57.14, -2.08, 0, False, True, False
Abidjan, Abidjan, Ivory Coast, 5.27, -4.02, 0, False, False, False
Turku, Southwest Finland, Finland, 60.44, 22.22, 2, False, True, False
Abo, Ondo State, Nigeria, 5.7, 4.47, 0, False, False, False
Himeji, Hyogo, Japan, 34.77, 134.61, 9, False, False, False
Bilbao, Basque Country, Spain, 43.35, -3.03, 1, False, False, False
Abu Al Bukhoosh, Abu Dhabi, U.A.E., 25.46, 53.08, 4, False, False, False
Jubail, Eastern Province, Saudi Arabia, 27.3, 49.69, 3, False, False, False
Abu Dhabi, Abu Dhabi, U.A.E., 24.53, 54.39, 4, False, False, False
Abu Marine Terminal, Sarawak, Malaysia, 6.13, 105.29, 7, False, False, False
Aburakawa, Iwate, Japan, 40.84, 140.74, 9, False, False, False
Aburatsu, Miyazaki, Japan, 31.57, 131.4, 9, False, False, False
Acajutla, Sonsonate, El Salvador, 13.56, -89.84, -6, False, False, False
Acandia, South Aegean, Greece, 36.45, 28.23, 2, False, False, False
São João da Barra, Rio de Janeiro, Brazil, -21.84, -41.0, -3, False, False, False
Adabiyah, Suez, Egypt, 29.88, 32.48, 2, False, False, False
Adak, Alaska, U.S.A., 51.85, -176.65, -10, False, False, False
Adamas, Milos, Greece, 36.72, 24.45, 2, False, False, False
Adang Bay, East Kalimantan, Indonesia, -1.72, 116.63, 8, False, False, False
Adelaide, South Australia, Australia, -34.78, 138.48, 10, True, False, False
Adelaide, South Australia, Australia, -34.83, 138.51, 10, True, False, False
Aden, Aden Governorate, Yemen, 12.77, 44.92, 3, False, False, False
Mississippi, Mississippi, U.S.A., 29.94, -90.31, -6, False, True, True
Rio Grande, Rio Grande do Sul, Brazil, -23.81, -45.38, -3, False, False, False
Aegean Sea, Greece, Greece, 39.17, 23.22, 2, False, False, False
Boca Chica, Santo Domingo, Dominican Republic, 18.4, -69.61, -4, False, False, False
Agadir, Souss-Massa, Morocco, 30.42, -9.64, 0, True, False, False
Agbami Terminal, Lagos State, Nigeria, 3.52, 5.53, 0, False, False, False
Agia Marina, Crete, Greece, 38.89, 22.59, 2, False, False, False
Agia Trias, Attica, Greece, 37.97, 23.41, 2, False, False, False
Agioi Theodoroi, Corinthia, Greece, 37.91, 23.09, 2, False, False, False
Agotnes, Vestland, Norway, 60.42, 5.01, 1, False, True, False
Agria, Thessaly, Greece, 39.34, 23.01, 2, False, False, False
Agrico Chemical, Mississippi, U.S.A., 30.09, -90.91, -6, False, True, True
Aguadilla, Puerto Rico, Puerto Rico, 18.43, -67.16, -4, False, True, True
Åhus, Skåne County, Sweden, 55.93, 14.33, 1, False, True, False
Ain Sukhna, Suez, Egypt, 29.58, 32.41, 2, False, False, False
Ain Sukhna, Suez, Egypt, 29.65, 32.36, 2, False, False, False
Airlie Island, Western Australia, Australia, -21.31, 115.17, 8, False, False, False
Aitutaki, Cook Islands, Cook Is., -18.82, -159.78, -10, False, False, False
Ajaccio, Corsica, France, 41.93, 8.75, 1, False, False, False
Ajman, Ajman, U.A.E., 25.42, 55.46, 4, False, False, False
Kemi, Lapland, Finland, 65.66, 24.51, 2, False, True, False
Akanehama, Chiba, Japan, 35.66, 139.99, 9, False, False, False
Kobe, Hyogo, Japan, 34.61, 135.02, 9, False, False, False
Kobe, Hyogo, Japan, 34.62, 135.02, 9, False, False, False
Molde, Møre og Romsdal, Norway, 58.93, 5.6, 1, False, True, False
Akita, Akita, Japan, 39.75, 140.06, 9, False, False, False
Akpo, Rivers State, Nigeria, 3.18, 6.8, 0, False, False, False
Akrotiri, Sovereign Base Area, Cyprus, 34.57, 33.03, 2, False, False, False
Al-Faw, Basra Governorate, Iraq, 29.68, 48.81, 3, False, False, False
Al Khums, Al Murgub, Libya, 32.66, 14.28, 2, False, False, False
Al Rayyan, Al Rayyan, Qatar, 26.67, 51.6, 3, False, False, False
Al Shaheen Terminal, Qatar, Qatar, 26.55, 52.06, 3, False, False, False
Ain Sokhna, Suez, Egypt, 29.58, 32.41, 2, False, False, False
Aladja, Delta, Nigeria, 5.0, 5.0, 0, False, False, False
Aland, Aland Islands, Finland, 60.1, 19.92, 2, False, True, False
Alang, Gujarat, India, 21.4, 72.21, 5, False, False, False
Alba, Scotland, U.K., 58.0, 1.0, 0, False, True, False
Alba, Bahrain, Bahrain, 26.19, 50.69, 3, False, False, False
Campos dos Goytacazes, Rio de Janeiro, Brazil, -22.15, -40.02, -3, False, False, False
Albany, NY, U.S.A., 42.63, -73.75, -5, False, True, True
Albany, Western Australia, Australia, -35.04, 117.89, 8, False, False, False
Al-Basra, Basra, Iraq, 29.68, 48.81, 3, False, False, False
Kingston upon Hull, East Riding of Yorkshire, U.K., 53.73, -0.34, 0, False, True, False
Alcasa, Bolívar, Venezuela, 8.33, -62.71, -4, False, False, False
Alcúdia, Balearic Islands, Spain, 39.83, 3.14, 1, False, False, False
Santos, São Paulo, Brazil, -23.97, -46.3, -3, False, False, False
Alesund, Møre og Romsdal, Norway, 62.47, 6.15, 1, False, True, False
Hull, East Yorkshire, U.K., 53.74, -0.3, 0, False, True, False
Alexandria, Alexandria Governorate, Egypt, 31.19, 29.87, 2, False, False, False
Alexandroupolis, Eastern Macedonia and Thrace, Greece, 40.84, 25.89, 2, False, False, False
Algeciras, Cádiz, Spain, 36.13, -5.43, 1, False, False, False
Algiers, Algiers Province, Algeria, 36.77, 3.08, 1, False, False, False
Algiers, Louisiana, U.S.A., 29.92, -89.96, -6, False, True, True
Aliağa, İzmir, Turkey, 38.83, 26.95, 3, False, False, False
Aliağa, İzmir, Turkey, 38.83, 26.91, 3, False, False, False
Alicante, Valencian Community, Spain, 38.33, -0.49, 1, False, False, False
Alicante, Alicante, Spain, 38.5, 1.0, 0, False, False, False
Aliveri, Central Greece, Greece, 38.39, 24.04, 2, False, False, False
Alliance, Ohio, U.S.A., 29.69, -89.97, -6, False, True, True
Southwood, Mississippi, U.S.A., 30.21, -91.06, -6, False, True, True
Almeria, Andalusia, Spain, 36.83, -2.47, 1, False, False, False
Almirante, Bocas del Toro, Panama, 9.26, -82.36, -5, False, False, False
Alpha Zone, Tsa, Argentina, -35.12, -56.0, -3, False, False, False
Altamira, Tamaulipas, Mexico, 22.48, -97.89, -6, False, False, False
Rio de Janeiro, Rio de Janeiro, Brazil, -22.82, -43.15, -3, False, False, False
Rio de Janeiro, Rio de Janeiro, Brazil, -22.81, -43.15, -3, False, False, False
Altındağ, Ankara, Turkey, 40.76, 29.53, 3, False, False, False
Altona, Hamburg, Germany, 53.54, 9.93, 1, False, True, False
Alvear, Corrientes, Argentina, -31.93, -60.67, -3, False, False, False
Ama, Louisiana, U.S.A., 29.95, -90.31, -6, False, True, True
Amagasaki, Hyogo, Japan, 34.69, 135.38, 9, False, False, False
Amamapare, Papua, Indonesia, -4.83, 136.85, 9, False, False, False
Ambarlı, Istanbul, Turkey, 40.97, 28.7, 3, False, False, False
Ambès, Nouvelle-Aquitaine, France, 45.04, -0.6, 1, False, False, False
Ambon, Maluku, Indonesia, -3.69, 128.16, 9, False, False, False
Amchit, Jbeil, Lebanon, 34.15, 35.63, 2, False, False, False
Amchitka, Alaska, U.S.A., 51.44, -179.72, -12, False, False, False
American Cyanamid Co, Mississippi, U.S.A., 29.97, -90.27, -6, False, True, True
Mississippi, Mississippi, U.S.A., 29.92, -90.2, -6, False, True, True
Amesville, Ohio, U.S.A., 29.91, -90.11, -6, False, True, True
Xiamen, Fujian, China, 24.45, 118.07, 8, False, False, False
Amsterdam, Noord-Holland, Netherlands, 52.4, 4.88, 1, False, True, False
Punto Fijo, Falcón, Venezuela, 11.74, -70.23, -4, False, False, False
Amukta, Alaska, U.S.A., 52.39, -171.82, -11, False, False, False
Anacortes, Washington, U.S.A., 48.51, -122.57, -8, False, True, True
Anchorage, Alaska, U.S.A., 61.22, -149.95, -9, False, True, True
Ancón, Lima, Peru, -11.77, -77.18, -5, False, False, False
Ancona, Marche, Italy, 43.62, 13.5, 1, False, False, False
Andiport, Ecuador, Ecuador, -2.28, -79.91, -5, False, False, False
Andoany, Diana, Madagascar, -13.41, 48.28, 3, False, False, False
Anegasaki, Chiba, Japan, 35.5, 140.02, 9, False, False, False
Anewa Bay, Autonomous Region of Bougainville, Papua New Guinea, -6.19, 155.55, 11, False, False, False
Angelin Landing, Mississippi, U.S.A., 30.05, -90.65, -6, False, True, True
Ango Ango, Tshuapa, Congo, -5.86, 13.43, 1, False, False, False
Angra do Heroísmo, Azores, Azores, 38.65, -27.21, -1, False, False, False
Angra Do Heroismo, Azores, Azores, 38.65, -27.21, -1, False, False, False
Angra dos Reis, Rio de Janeiro, Brazil, -23.01, -44.31, -3, False, False, False
Seria, Sarawak, Malaysia, 5.09, 104.69, 7, False, False, False
Anguilla, Anguilla, Anguilla, 18.2, -63.09, -4, False, False, True
Annaba, Annaba, Algeria, 36.91, 7.78, 1, False, False, False
Delta, British Columbia, Canada, 49.19, -122.91, -8, False, True, True
Jakarta, Java, Indonesia, 5.19, 105.61, 7, False, False, False
Antalya, Antalya, Turkey, 36.85, 30.65, 3, False, False, False
Kano, Kano State, Nigeria, 4.15, 8.33, 1, False, False, False
Antifer, Normandy, France, 49.65, 0.13, 1, False, True, False
Antilla, Holguín, Cuba, 20.83, -75.74, -5, False, False, False
Antofagasta, Antofagasta, Chile, -23.64, -70.42, -3, True, False, False
Antsiranana, Diana, Madagascar, -12.27, 49.28, 3, False, False, False
Antwerp, Flanders, Belgium, 51.35, 4.27, 1, False, True, False
Antwerp, Flanders, Belgium, 51.29, 4.26, 1, False, True, False
Antwerp, Flanders, Belgium, 51.34, 4.27, 1, False, True, False
Antwerp, Flanders, Belgium, 51.35, 4.26, 1, False, True, False
Antwerp, Flanders, Belgium, 51.28, 4.32, 1, False, True, False
Antwerp, Flanders, Belgium, 51.28, 4.23, 1, False, True, False
Anyer, Banten, Indonesia, -6.06, 105.88, 7, False, False, False
Ciwandan, Banten, Indonesia, -6.02, 105.95, 7, False, False, False
Ao Shan, Shandong, China, 29.95, 122.13, 8, False, False, False
Aogashima, Tokyo, Japan, 32.98, 129.03, 9, False, False, False
Aomori, Aomori, Japan, 40.84, 140.74, 9, False, False, False
Apapa, Lagos State, Nigeria, 6.43, 3.4, 1, False, False, False
Apia, Tuamasaga, Samoa, -13.82, -171.76, 13, False, False, False
Apra, Guam, Guam, 13.46, 144.66, 10, False, False, False
Aqaba, Aqaba Governorate, Jordan, 29.51, 34.99, 3, False, False, False
Aqaba, Aqaba Governorate, Jordan, 29.47, 34.97, 3, False, False, False
Aqaba, Aqaba Governorate, Jordan, 29.37, 34.96, 3, False, False, False
Aquila Terminal, Abruzzo, Italy, 40.91, 18.34, 1, False, False, False
Alphen aan den Rijn, South Holland, Netherlands, 51.9, 4.43, 1, False, True, False
Aracaju, Sergipe, Brazil, -11.13, -36.94, -3, False, False, False
Aratu, Bahia, Brazil, -12.78, -38.5, -3, False, False, False
Arkhangelsk, Arkhangelsk Oblast, Russia, 64.53, 40.53, 3, False, False, False
Ardjuna, East Java, Indonesia, -5.84, 107.78, 7, False, False, False
Ardmore, Scotland, U.K., 56.17, 2.73, 0, False, True, False
Ardrossan, South Australia, Australia, -34.44, 137.93, 10, True, False, False
Arendal, Agder, Norway, 58.46, 8.77, 1, False, True, False
Arica, Arica y Parinacota, Chile, -18.46, -70.32, -3, True, False, False
Arrecife, Las Palmas, Spain, 28.97, -13.53, 0, False, False, False
Arthur Kill, New York, U.S.A., 40.56, -74.24, -5, False, True, True
Oranjestad, Aruba, Aruba, 12.52, -70.04, -4, False, False, False
Lhokseumawe, Aceh, Indonesia, 5.22, 97.08, 7, False, False, False
Arutanga, Aitutaki, Cook Is., -21.2, -159.78, -10, False, False, False
Arutunga, Cook Islands, Cook Is., -18.82, -159.78, -10, False, False, False
Arzew, Oran, Algeria, 35.85, -0.29, 1, False, False, False
Arzew, Oran, Algeria, 35.82, -0.25, 1, False, False, False
Ascension Island, Ascension, Ascension, -7.89, -14.39, 0, False, False, False
Aseng, Wele-Nzas, Equatorial Guinea, 3.37, 9.14, 1, False, False, False
Ash Shihr, Hadhramaut, Yemen, 14.67, 49.52, 3, False, False, False
Ashdod, Southern District, Israel, 31.86, 34.64, 2, False, False, False
Ashdod, Southern District, Israel, 31.83, 34.64, 2, False, False, False
Ashkelon, South District, Israel, 31.66, 34.51, 2, False, False, False
Ashtabula, Ohio, U.S.A., 41.92, -80.81, -5, False, False, False
Ashtart, Tunisia, Tunisia, 34.22, 11.39, 1, False, False, False
Buru Passage, Maluku, Indonesia, -3.11, 127.25, 9, False, False, False
Gorong, Maluku, Indonesia, -4.0, 131.87, 9, False, False, False
Mandalika, West Nusa Tenggara, Indonesia, -6.08, 111.0, 7, False, False, False
Molu Passage, Indonesia, Indonesia, -6.58, 132.35, 9, False, False, False
Pasir Layaran, West Java, Indonesia, -7.62, 122.31, 8, False, False, False
Bawean, East Java, Indonesia, -5.51, 112.0, 7, False, False, False
Romang, Maluku, Indonesia, -7.63, 127.17, 9, False, False, False
Selat Gelasa, Indonesia, Indonesia, -2.0, 107.27, 7, False, False, False
Selat Ombai, Nusa Tenggara Timor, Indonesia, -8.25, 125.32, 8, False, False, False
Asnæs, Region Zealand, Denmark, 55.67, 11.09, 1, False, True, False
Aspra Spitia, Viotia, Greece, 38.37, 22.66, 2, False, False, False
Aspropyrgos, Attica, Greece, 38.02, 23.59, 2, False, False, False
Assab, Debubawi Keyih Bahri, Eritrea, 13.0, 42.75, 3, False, False, False
Assaluyeh, Bushehr, Iran, 27.52, 52.51, 3, False, False, False
Assemini, Sardinia, Italy, 39.19, 9.1, 1, False, False, False
Assens, Region of Southern Denmark, Denmark, 55.27, 9.89, 1, False, True, False
Atherinolakkos, Crete, Greece, 35.35, 25.05, 2, False, False, False
Atreco, MT, U.S.A., 30.08, -94.08, -6, False, True, True
Atsumi, Yamagata, Japan, 34.67, 137.08, 9, False, False, False
Attu Station, Alaska, U.S.A., 53.16, 172.59, -10, False, False, False
Auckland, Auckland, New Zealand, -36.84, 174.77, 13, True, False, False
Aughinish Island, County Limerick, Ireland, 52.65, -9.06, 0, True, False, False
Augusta, Sicily, Italy, 37.2, 15.22, 1, False, False, False
Aultbea, Scotland, U.K., 57.83, -5.59, 0, False, True, False
Austevoll, Vestland, Norway, 60.1, 5.25, 1, False, True, False
Avatiu, Rarotonga, Cook Is., -21.2, -159.78, -10, False, False, False
Aveiro, Aveiro, Portugal, 40.66, -8.71, 0, False, False, False
Avernakke, Region of Southern Denmark, Denmark, 55.31, 10.79, 1, False, True, False
Aviles, Asturias, Spain, 43.56, -5.92, 1, False, False, False
Avon, Indiana, U.S.A., 38.05, -122.16, -8, False, True, True
Martinez, California, U.S.A., 38.05, -122.09, -8, False, True, True
Avondale, Arizona, U.S.A., 29.93, -90.19, -6, False, True, True
Avondale, Mississippi, U.S.A., 29.93, -90.14, -6, False, True, True
Avondale, Mississippi, U.S.A., 29.93, -90.18, -6, False, True, True
Avonmouth, England, U.K., 51.51, -2.72, 0, False, True, False
Axel, Zeeland, Netherlands, 51.34, 3.81, 1, False, True, False
Axelsvik, Stockholm County, Sweden, 65.77, 23.38, 1, False, True, False
Selaata, North Governorate, Lebanon, 36.85, 36.13, 3, False, False, False
Mariupol, Donetsk Oblast, Ukraine, 47.08, 37.58, 2, False, False, False
Pointe-Noire, Kouilou, Congo, -5.63, 10.98, 1, False, False, False
Az Zawiyah, Jafara., Libya, 32.81, 12.69, 2, False, False, False
Hanoi, Hanoi, Vietnam, 9.8, 107.99, 7, False, False, False
Babatngon, Leyte, Philippines, 11.41, 124.76, 8, False, False, False
Vung Tau, Ba Ria-Vung Tau, Vietnam, 9.8, 107.99, 7, False, False, False
Bachaquero, Zulia, Venezuela, 9.94, -71.16, -4, False, False, False
Bacolod, Negros Occidental, Philippines, 10.69, 122.93, 8, False, False, False
Bacong, Negros Oriental, Philippines, 9.23, 123.3, 8, False, False, False
Bontang, East Kalimantan, Indonesia, 0.1, 117.48, 8, False, False, False
Bådo, Västra Götaland, Sweden, 58.34, 11.9, 1, False, True, False
Bandırma, Balıkesir, Turkey, 40.38, 27.91, 3, False, False, False
Baglan, Wales, U.K., 51.62, -3.84, 0, False, False, False
Bahía Blanca, Buenos Aires, Argentina, -38.79, -62.27, -3, False, False, False
Bahía Blanca, Buenos Aires, Argentina, -38.79, -62.29, -3, False, False, False
Bahia Felix, Magallanes and Chilean Antarctica, Chile, -52.92, -74.05, -3, False, False, False
Bahía Las Minas, Colón, Panama, 9.4, -79.82, -5, False, False, False
Bahía Posesión, Magallanes y de la Antártica Chilena, Chile, -52.37, -69.03, -3, False, False, False
Manama, Bahrain, Bahrain, 26.17, 50.68, 3, False, False, False
Bahregan, Bushehr, Iran, 29.72, 50.17, 3, False, False, False
Baie-Comeau, Quebec, Canada, 49.26, -68.13, -5, False, True, True
Dumbéa, South Province, New Caledonia, -22.26, 166.43, 11, False, False, False
Baie-Comeau, Quebec, Canada, 49.23, -68.13, -5, False, True, True
Baitkal, Karnataka, India, 14.81, 74.12, 5, False, False, False
Bajo Grande, Zulia, Venezuela, 10.51, -71.6, -4, False, False, False
Bakar, Primorje-Gorski Kotar, Croatia, 45.3, 14.55, 1, False, False, False
Bakarista, Russia, Russia, 64.53, 40.53, 3, False, False, False
Balhaf, Shabwah, Yemen, 13.96, 48.17, 3, False, False, False
Balabac, Palawan, Philippines, 7.96, 117.22, 8, False, False, False
Balao, Guayas, Ecuador, 1.05, -79.72, -5, False, False, False
Balboa, Panamá, Panama, 8.95, -79.57, -5, False, False, False
Balboa, Panama, Panama, 8.97, -79.57, -5, False, False, False
Balchik, Dobrich, Bulgaria, 43.38, 28.18, 2, False, False, False
Balikpapan, East Kalimantan, Indonesia, -1.26, 116.81, 8, False, False, False
Balikpapan, East Kalimantan, Indonesia, -1.2, 116.78, 8, False, False, False
Balintang Channel, Ilocos Region, Philippines, 19.88, 121.87, 8, False, False, False
Sydney, New South Wales, Australia, -33.85, 151.21, 11, True, False, False
Ballylumford, Northern Ireland, U.K., 54.84, -5.79, 0, False, False, False
Balmain, New South Wales, Australia, -33.85, 151.21, 11, True, False, False
Indramayu, West Java, Indonesia, -6.23, 108.46, 7, False, False, False
Baltimore, Maryland, U.S.A., 39.27, -76.57, -5, False, True, True
Baltimore, Maryland, U.S.A., 39.22, -76.57, -5, False, True, True
Baltimore, Maryland, U.S.A., 39.24, -76.54, -5, False, True, True
Baltimore, Maryland, U.S.A., 39.26, -76.57, -5, False, True, True
Baltimore, Maryland, U.S.A., 39.28, -76.59, -5, False, True, True
Baltimore, Maryland, U.S.A., 39.27, -76.58, -5, False, True, True
Baltimore, Maryland, U.S.A., 39.26, -76.6, -5, False, True, True
Baltimore, Maryland, U.S.A., 39.26, -76.55, -5, False, True, True
Baltimore, Maryland, U.S.A., 39.21, -76.48, -5, False, True, True
Baltimore, Maryland, U.S.A., 39.22, -76.5, -5, False, True, True
Baltiysk, Kaliningrad Oblast, Russia, 54.63, 19.92, 2, False, True, False
Banago, Negros Occidental, Philippines, 10.69, 122.93, 8, False, False, False
Banana, Kongo Central, "Congo,  D.R.", -6.04, 12.4, 1, False, False, False
Banco Bay, Lagunes Region, Ivory Coast, 5.27, -4.02, 0, False, False, False
Bandar Abbas, Hormozgan, Iran, 27.14, 56.2, 3, False, False, False
Bandar Asaluyeh, Bushehr, Iran, 27.52, 52.51, 3, False, False, False
Bandar Abbas, Hormozgan, Iran, 27.09, 56.07, 3, False, False, False
Bandar Imam Khomeini, Khuzestan, Iran, 30.42, 49.09, 3, False, False, False
Bandar Mahshahr, Khuzestan, Iran, 30.46, 49.18, 3, False, False, False
Bandar Shahid Bahonar, Hormozgan, Iran, 27.14, 56.2, 3, False, False, False
Bandar Shahid Rajaee, Hormozgan, Iran, 27.14, 56.2, 3, False, False, False
Bandar Taheri, Bushehr, Iran, 27.63, 52.35, 3, False, False, False
Bandirma, Balikesir, Turkey, 40.35, 27.96, 3, False, False, False
Bang Hua Sua, Chon Buri, Thailand, 13.68, 100.52, 7, False, False, False
Pangkal Pinang, Bangka Belitung Islands, Indonesia, -1.8, 105.14, 7, False, False, False
Bangka, Bangka Belitung Islands, Indonesia, 1.95, 125.21, 8, False, False, False
Bangkok, Bangkok Province, Thailand, 13.68, 100.52, 7, False, False, False
Banias, Tartus, Syria, 35.23, 35.92, 3, False, False, False
Banjarmasin, South Kalimantan, Indonesia, -3.33, 114.56, 8, False, False, False
Banjarmasin, South Kalimantan, Indonesia, -3.67, 114.43, 8, False, False, False
Banjul, Banjul, Gambia, 13.44, -16.57, 0, False, False, False
Banten, Banten, Indonesia, -6.0, 105.97, 7, False, False, False
Bantry, County Cork, Ireland, 51.7, -9.54, 0, True, False, False
San Pedro, Côte d'Ivoire, Ivory Coast, 4.94, -4.53, 0, False, False, False
San Pedro, Bas-Sassandra, Ivory Coast, 4.94, -4.53, 0, False, False, False
Baoshan, Yunnan, China, 31.37, 121.5, 8, False, False, False
Bar, Montenegro, Montenegro, 42.1, 19.08, 1, False, False, False
Bridgetown, Saint Michael, Barbados, 13.1, -59.63, -4, False, False, False
Bridgetown, Saint Michael, Barbados, 13.11, -59.63, -4, False, False, False
Kapolei, Hawaii, U.S.A., 21.27, -158.09, -10, False, True, True
La Porte, Texas, U.S.A., 29.75, -95.29, -6, False, True, True
La Porte, Texas, U.S.A., 29.68, -95.01, -6, False, True, True
Barcadera, Aruba, Aruba, 12.48, -70.0, -4, False, False, False
Barcarena, Pará, Brazil, -1.54, -48.77, -3, False, False, False
Barcelona, Catalonia, Spain, 41.34, 2.16, 1, False, False, False
Barcelona, Spain, Spain, 41.35, 2.17, 1, False, False, False
Bari, Apulia, Italy, 41.14, 16.86, 1, False, False, False
Vung Tau, Ba Ria-Vung Tau, Vietnam, 10.59, 107.03, 7, False, False, False
Barkan, Mazandaran, Iran, 29.72, 50.17, 3, False, False, False
Barking, England, U.K., 51.51, 0.12, 0, False, True, False
Rio de Janeiro, Rio de Janeiro, Brazil, -23.97, -46.3, -3, False, False, False
Gladstone, Queensland, Australia, -23.82, 151.24, 10, False, False, False
Barquito, Atacama, Chile, -26.35, -70.65, -3, True, False, False
Barra, Scotland, U.K., 56.95, -7.49, 0, False, False, False
Barra dos Coqueiros, Sergipe, Brazil, -11.13, -36.94, -3, False, False, False
Barranquilla, Atlántico, Colombia, 10.97, -74.76, -5, False, False, False
Grafton Passage, Queensland, Australia, -16.64, 146.23, 10, False, False, False
Great Barrier Reef, Queensland, Australia, -19.97, 150.28, 10, False, False, False
Great Barrier Reef, Queensland, Australia, -18.21, 147.12, 10, False, False, False
Barrow Island, Western Australia, Australia, -20.81, 115.57, 8, False, False, False
Barry, Wales, U.K., 51.39, -3.26, 0, False, True, False
Bashayer, Red Sea State, Sudan, 19.4, 37.33, 2, False, False, False
Basrah, Basra, Iraq, 29.68, 48.81, 3, False, False, False
Basseterre, St. Kitts, St. Kitts, 17.29, -62.72, -4, False, False, False
Bastia, Corsica, France, 42.7, 9.45, 1, False, False, False
Basuo, Hainan, China, 19.1, 108.62, 8, False, False, False
Bata, Litoral, Equatorial Guinea, 1.83, 9.73, 1, False, False, False
Bataan, Central Luzon, Philippines, 14.52, 120.64, 8, False, False, False
Batangas City, Batangas, Philippines, 13.72, 121.05, 8, False, False, False
Banjul, Gambia, Gambia, 13.44, -16.57, 0, False, False, False
Baton Rouge, Louisiana, U.S.A., 30.47, -91.2, -6, False, True, True
Baton Rouge, Louisiana, U.S.A., 30.44, -91.2, -6, False, True, True
Batam, Riau Islands, Indonesia, 1.17, 104.0, 7, False, False, False
Batumi, Adjara., Georgia, 41.65, 41.65, 4, False, False, False
Bayonne, New Jersey, U.S.A., 40.7, -74.01, -5, False, True, True
Bayonne, Nouvelle-Aquitaine, France, 43.49, -1.47, 1, False, False, False
Bayonne, New Jersey, U.S.A., 40.65, -74.08, -5, False, True, True
Pascagoula, Mississippi, U.S.A., 30.35, -88.57, -6, False, True, True
Bayou Goula, Louisiana, U.S.A., 30.21, -91.16, -6, False, True, True
Venice, Louisiana, U.S.A., 29.45, -89.6, -6, False, True, True
Bayovar, Piura, Peru, -5.8, -81.05, -5, False, False, False
Bayport, New York, U.S.A., 29.75, -95.29, -6, False, True, True
Bayport, Texas, U.S.A., 29.61, -95.02, -6, False, True, True
Bayside, Nova Scotia, Canada, 45.16, -67.14, -4, False, True, True
Baytown, Texas, U.S.A., 29.73, -95.02, -6, False, True, True
Iyo, Wele-Nzas, Equatorial Guinea, 3.79, 8.07, 1, False, False, False
Bayu Udan, Timor-Leste, East Timor, -11.04, 126.63, 8, False, False, False
Bayu Undan, Timor-Leste, East Timor, -11.04, 126.63, 8, False, False, False
Suai, Cova Lima, East Timor, -11.04, 126.63, 8, False, False, False
Bayuquan, Liaoning, China, 40.28, 122.09, 8, False, False, False
Bayway, New Jersey, U.S.A., 40.63, -74.2, -5, False, True, True
Point Tupper, Nova Scotia, Canada, 45.55, -61.3, -4, False, True, True
Beaufort, North Carolina, U.S.A., 34.71, -76.69, -5, False, True, True
Beaumont, Texas, U.S.A., 30.08, -94.08, -6, False, True, True
Bec d'Ambès, Nouvelle-Aquitaine, France, 45.04, -0.6, 1, False, False, False
Beihai, Guangxi, China, 21.48, 109.06, 8, False, False, False
Ningbo, Zhejiang, China, 29.93, 121.88, 8, False, False, False
Ningbo, Zhejiang, China, 29.94, 121.86, 8, False, False, False
Beilun, Zhejiang, China, 29.94, 121.9, 8, False, False, False
Beira, Sofala, Mozambique, -19.82, 34.83, 2, False, False, False
Beirut, Beirut Governorate, Lebanon, 33.91, 35.54, 2, False, False, False
Bejaia, Bejaia, Algeria, 36.76, 5.1, 1, False, False, False
Paldiski, Harju County, Estonia, 59.5, 24.97, 2, False, True, False
Bela Vista, Maputo Province, Mozambique, -25.98, 32.57, 2, False, False, False
Bel Air, Maryland, U.S.A., 29.73, -89.99, -6, False, True, True
Belanak Marine Terminal, Riau Islands, Indonesia, 4.22, 106.2, 7, False, False, False
Belawan, North Sumatra, Indonesia, 3.79, 98.7, 7, False, False, False
Belém, Pará, Brazil, -1.44, -48.53, -3, False, False, False
Belfast, Northern Ireland, U.K., 54.63, -5.89, 0, False, False, False
Belida Terminal, South Sumatra, Indonesia, 4.22, 105.05, 7, False, False, False
Belize City, Belize, Belize, 17.47, -88.19, -6, False, False, False
Bell Bay, Tasmania, Australia, -41.14, 146.87, 11, True, False, False
Bella Vista, Buenos Aires Province, Argentina, -32.69, -60.73, -3, False, False, False
Belle Chasse, Louisiana, U.S.A., 29.85, -89.98, -6, False, True, True
Belle Isle, Newfoundland and Labrador, Canada, 51.7, -55.96, -3, False, True, True
Belle Isle, Newfoundland and Labrador, Canada, 51.78, -56.01, -3, False, True, True
Belledune, New Brunswick, Canada, 47.91, -65.84, -4, False, True, True
Bellevue, Washington, U.S.A., 29.61, -89.89, -6, False, True, True
Benchamas Terminal, Bangkok, Thailand, 10.52, 101.32, 7, False, False, False
Benghazi, Cyrenaica, Libya, 32.12, 20.05, 2, False, False, False
Benicia, California, U.S.A., 38.05, -122.16, -8, False, True, True
Benoa, Bali, Indonesia, -8.75, 115.22, 8, False, False, False
Berbera, Woqooyi Galbeed, Somalia, 10.44, 44.99, 3, False, False, False
Berdyansk, Zaporizhzhia Oblast, Ukraine, 46.75, 36.77, 2, False, False, False
Bergen, Vestland, Norway, 60.39, 5.3, 1, False, True, False
Bayonne, New Jersey, U.S.A., 40.65, -74.15, -5, False, True, True
Berrypoint, Alberta, Canada, 49.3, -123.09, -8, False, True, True
North Sydney, New South Wales, Australia, -33.85, 151.21, 11, True, False, False
Bethioua, Oran, Algeria, 35.82, -0.25, 1, False, False, False
Northfleet, Kent, U.K., 51.45, 0.34, 0, False, True, False
Bhavnagar, Gujarat, India, 21.75, 72.29, 5, False, False, False
Biawak, Sarawak, Malaysia, 1.74, 110.53, 8, False, False, False
Bicudo, Minas Gerais, Brazil, -22.73, -40.72, -3, False, False, False
New Orleans, Louisiana, U.S.A., 29.95, -90.06, -6, False, True, True
Big Bend National Park, Texas, U.S.A., 27.92, -82.43, -5, False, True, True
Milford, Delaware, U.S.A., 38.95, -75.18, -5, False, True, True
Bilbao, Biscay, Spain, 43.35, -3.03, 1, False, False, False
Bilbao, Basque Country, Spain, 43.37, -3.1, 1, False, False, False
Bima, West Nusa Tenggara, Indonesia, -5.71, 107.13, 7, False, False, False
Bintan Island, Riau Islands, Indonesia, 0.85, 104.61, 7, False, False, False
Bintulu, Sarawak, Malaysia, 3.26, 113.07, 8, False, False, False
Bintulu, Sarawak, Malaysia, 3.26, 113.06, 8, False, False, False
Bintulu, Sarawak, Malaysia, 3.38, 113.04, 8, False, False, False
Bintulu, Sarawak, Malaysia, 3.33, 113.0, 8, False, False, False
Bintuni, West Papua, Indonesia, -2.42, 133.03, 9, False, False, False
Bideford, England, U.K., 51.55, -2.99, 0, False, False, False
Ankara, Ankara, Turkey, 36.88, 36.05, 3, False, False, False
Pasaia, Basque Country, Spain, 43.32, -1.92, 1, False, False, False
Bishop Rock, England, U.K., 49.63, -6.33, 0, False, False, False
Bishop Rock, England, U.K., 49.72, -6.33, 0, False, False, False
Bishop Rock, England, U.K., 49.95, -6.67, 0, False, False, False
Bishop Rock, England, U.K., 49.95, -6.8, 0, False, False, False
Bitung, North Sulawesi, Indonesia, 1.43, 125.19, 8, False, False, False
Bizerte, Bizerte Governorate, Tunisia, 37.28, 9.89, 1, False, False, False
Palmerston City, Northern Territory, Australia, -14.4, 129.35, 9, False, False, False
Blang Lancang, Aceh, Indonesia, 5.27, 97.08, 7, False, False, False
Meulaboh, Aceh, Indonesia, 5.22, 97.08, 7, False, False, False
Blenheim, England, U.K., 58.27, 1.0, 0, False, True, False
Jacksonville, Florida, U.S.A., 30.35, -81.62, -5, False, True, True
Bluff, Southland, New Zealand, -46.59, 168.35, 13, True, False, False
Blyth, Northumberland, U.K., 55.13, -1.5, 0, False, True, False
Boca Chica, Santo Domingo, Dominican Republic, 18.44, -69.63, -4, False, False, False
Boca Grande, Falcón, Venezuela, 9.96, -61.58, -4, False, False, False
Boca Grande, Florida, U.S.A., 26.72, -82.25, -5, False, True, True
Boca Grande, Venezuela, Venezuela, 9.96, -61.58, -4, False, False, False
Bodø, Nordland, Norway, 67.29, 14.38, 1, False, False, False
Bodo, Nordland, Norway, 67.4, 14.44, 1, False, False, False
Niceville, Florida, U.S.A., 29.75, -95.29, -6, False, True, True
Houston, Texas, U.S.A., 29.73, -95.14, -6, False, True, True
Bohai, Shandong, China, 38.24, 119.7, 8, False, False, False
Penglai, Shandong, China, 38.37, 120.08, 8, False, False, False
Bohemia, New York, U.S.A., 29.54, -89.76, -6, False, True, True
Bohai Sea, Shandong, China, 39.1, 119.2, 8, False, False, False
Bojonegara, Banten, Indonesia, -6.0, 105.97, 7, False, False, False
Bollsta, Västernorrland, Sweden, 62.64, 17.94, 1, False, True, False
Boma, Kongo Central, "Congo,  D.R.", -5.86, 13.05, 1, False, False, False
Mumbai, Maharashtra, India, 18.92, 72.87, 5, False, False, False
Bonabéri, Littoral, Cameroon, 4.04, 9.68, 1, False, False, False
Kralendijk, Bonaire, Netherlands Antilles, 12.15, -68.28, -4, False, False, False
Bonga Terminal, Delta State., Nigeria, 4.57, 4.63, 0, False, False, False
Bonifacio, Corsica, France, 41.28, 9.26, 1, False, False, False
Bonifacio, Corsica, France, 41.29, 9.26, 1, False, False, False
Bonito, Mato Grosso do Sul, Brazil, -22.73, -40.72, -3, False, False, False
Bonny, Rivers, Nigeria, 4.42, 7.13, 1, False, False, False
Bonny, Rivers State, Nigeria, 4.42, 7.13, 1, False, False, False
Bonny, Rivers State, Nigeria, 4.13, 7.24, 0, False, False, False
Bontang, East Kalimantan, Indonesia, 0.03, 117.53, 8, False, False, False
Bonaire, Bonaire, Netherlands Antilles, 12.15, -68.28, -4, False, False, False
Freeport, Bahamas, Bahamas, 26.5, -78.78, -5, False, False, True
Bordeaux, Nouvelle-Aquitaine, France, 44.85, -0.56, 1, False, False, False
Borg, Nordland, Norway, 59.21, 10.96, 1, False, True, False
Fredrikstad, Østfold, Norway, 59.21, 10.96, 1, False, True, False
Porvoo, Uusimaa, Finland, 60.37, 25.69, 2, False, True, False
Sikka, Gujarat, India, 22.56, 69.76, 5, False, False, False
Borongan City, Eastern Samar, Philippines, 11.25, 125.0, 8, False, False, False
Borsele, Zeeland, Netherlands, 51.41, 3.73, 1, False, True, False
Istanbul, Istanbul, Turkey, 41.0, 29.01, 3, False, False, False
Istanbul, Istanbul, Turkey, 41.2, 29.11, 3, False, False, False
Istanbul, Turkey, Turkey, 41.2, 29.11, 3, False, False, False
Boston Bay, South Australia, Australia, -34.72, 135.88, 10, True, False, False
Boston, Massachusetts, U.S.A., 42.36, -71.04, -5, False, True, True
Boston, Lincolnshire, U.K., 52.97, -0.01, 0, False, True, False
Botany Bay, New South Wales, Australia, -33.99, 151.21, 11, True, False, False
Ceyhan, Adana, Turkey, 36.86, 35.94, 3, False, False, False
Botas, Adana, Turkey, 40.99, 27.99, 3, False, False, False
Botlek, South Holland, Netherlands, 51.88, 4.29, 1, False, True, False
Botwood, Newfoundland and Labrador, Canada, 49.14, -55.33, -3, False, True, True
Botwood, Newfoundland and Labrador, Canada, 50.12, -53.73, -4, False, True, True
Boulogne-sur-Mer, Hauts-de-France, France, 50.72, 1.57, 1, False, True, False
Burgas, Burgas Province, Bulgaria, 42.49, 27.46, 2, False, False, False
Bouri, Libya, Libya, 33.87, 12.67, 1, False, False, False
Boynton Beach, Florida, U.S.A., 40.54, -74.25, -5, False, True, True
Bozcaada, Çanakkale, Turkey, 39.81, 26.04, 3, False, False, False
Labuan, Labuan Federal Territory, Malaysia, 5.13, 115.21, 8, False, False, False
Braakman Harbour, Zeeland, Netherlands, 51.34, 3.81, 1, False, True, False
Braefoot Bay, Scotland, U.K., 56.03, -3.31, 0, False, True, False
Braithwaite, Louisiana, U.S.A., 29.87, -89.93, -6, False, True, True
Brake, Lower Saxony, Germany, 53.33, 8.49, 1, False, True, False
Singapore, Singapore, Singapore, 1.27, 103.83, 8, False, False, False
Brass, Bayelsa, Nigeria, 4.09, 6.32, 0, False, False, False
Braviken, Östergötland, Sweden, 58.6, 16.22, 1, False, True, False
Rio De La Plata, Buenos Aires, Argentina, -35.53, -56.54, -3, False, False, False
Somerset, Massachusetts, U.S.A., 41.71, -71.19, -5, False, True, True
Tromsø, Troms og Finnmark, Norway, 69.65, 18.97, 1, False, False, False
Bremanger, Vestland, Norway, 61.77, 4.88, 1, False, True, False
Bremen, Bremen, Germany, 53.12, 8.7, 1, False, True, False
Bremerhaven, Bremen, Germany, 53.56, 8.55, 1, False, True, False
Brest, Brittany, France, 48.37, -4.49, 1, False, True, False
Breves, Pará, Brazil, -1.69, -50.49, -3, False, False, False
Brevik, Vestfold og Telemark, Norway, 59.05, 9.69, 1, False, True, False
Bridgeport, Connecticut, U.S.A., 41.17, -73.18, -5, False, True, True
Brindisi, Apulia, Italy, 40.66, 17.98, 1, False, False, False
Brisbane, Queensland, Australia, -27.38, 153.17, 10, False, False, False
Bristol, Pennsylvania, U.S.A., 40.09, -74.86, -5, False, True, True
Bristol, England, U.K., 51.45, -2.62, 0, False, True, False
Brodick, Scotland, U.K., 55.58, -5.14, 0, False, False, False
Brofjorden, Västra Götaland., Sweden, 58.36, 11.44, 1, False, True, False
Bromborough, England, U.K., 53.45, -3.02, 0, False, False, False
Brooklyn, New York, U.S.A., 40.69, -74.01, -5, False, True, True
Brooklyn, New York, U.S.A., 40.7, -74.0, -5, False, True, True
Broome, Western Australia, Australia, -18.0, 122.22, 8, False, False, False
Brownsville, Texas, U.S.A., 25.96, -97.38, -6, False, True, True
Bruges, West Flanders, Belgium, 51.23, 3.22, 1, False, True, False
Brunsbüttel, Schleswig-Holstein, Germany, 53.88, 9.14, 1, False, True, False
Pattani, Pattani, Thailand, 10.55, 100.29, 7, False, False, False
Buchanan, Grand Bassa County, Liberia, 5.86, -10.05, 0, False, False, False
Uruma, Okinawa, Japan, 26.22, 127.79, 9, False, False, False
Bucksport, Maine, U.S.A., 44.57, -68.8, -5, False, True, True
Budai Township, Chiayi County, Taiwan, 22.58, 120.3, 8, False, False, False
Buenaventura, Valle del Cauca, Colombia, 3.89, -77.07, -5, False, False, False
Buenos Aires, Buenos Aires, Argentina, -34.59, -58.36, -3, False, False, False
Buffalo, New York, U.S.A., 42.86, -78.88, -5, False, False, False
Broome, Western Australia, Australia, -10.66, 126.09, 8, False, False, False
Dubbo, New South Wales, Australia, -10.66, 126.09, 8, False, False, False
Bugpyong, Gyeonggi-do, South Korea, 37.49, 129.14, 9, False, False, False
Bukpyung, Gangwon-do, South Korea, 37.49, 129.14, 9, False, False, False
Bula, Maluku, Indonesia, -3.1, 130.5, 9, False, False, False
Gothenburg, Västra Götaland, Sweden, 56.03, 12.69, 1, False, True, False
Bullen Bay, Curaçao, Netherlands Antilles, 12.19, -69.02, -4, False, False, False
Willemstad, Curaçao, Netherlands Antilles, 12.19, -69.02, -4, False, False, False
Bunati, South Kalimantan, Indonesia, -3.9, 115.76, 8, False, False, False
Bunbury, Western Australia, Australia, -33.32, 115.66, 8, False, False, False
Bundaberg, Queensland, Australia, -24.77, 152.38, 10, False, False, False
Bintulu, Sarawak, Malaysia, 7.06, 104.07, 7, False, False, False
Bunga Orkid, Malaysia, Malaysia, 7.17, 103.79, 7, False, False, False
Sandakan, Sabah, Malaysia, 6.95, 104.1, 7, False, False, False
Greenville, Mississippi, U.S.A., 29.93, -90.35, -6, False, True, True
Bungo, Ōita, Japan, 33.3, 132.0, 9, False, False, False
Buras, Louisiana, U.S.A., 29.36, -89.53, -6, False, True, True
Burbridge, N.D., U.S.A., 29.67, -89.96, -6, False, True, True
Burnie, Tasmania, Australia, -41.05, 145.91, 11, True, False, False
Burnside, Kentucky, U.S.A., 30.14, -90.93, -6, False, True, True
Burnside, Mississippi, U.S.A., 30.12, -90.92, -6, False, True, True
Burnside, Louisiana, U.S.A., 30.13, -90.92, -6, False, True, True
Burravoe, Scotland, U.K., 60.46, -1.3, 0, False, True, False
Burray, Scotland, U.K., 58.9, -3.05, 0, False, True, False
Busan, South Gyeongsang, South Korea, 35.11, 129.06, 9, False, False, False
Bushehr, Bushehr Province, Iran, 29.0, 50.83, 3, False, False, False
Bushehr, Bushehr, Iran, 29.0, 50.83, 3, False, False, False
Butadiene Dock Island, Brazil, Brazil, -22.82, -43.15, -3, False, False, False
Mumbai, Maharashtra, India, 18.96, 72.91, 5, False, False, False
Būtingė, Klaipėda County, Lithuania, 56.04, 20.96, 2, False, True, False
Butterworth, Penang, Malaysia, 5.37, 100.36, 8, False, False, False
Stade, Lower Saxony, Germany, 53.65, 9.51, 1, False, True, False
Shenzhen, Guangdong, China, 38.25, 119.16, 8, False, False, False
Cabedelo, Paraíba, Brazil, -6.97, -34.84, -3, False, False, False
Cabinda, Cabinda Province, Angola, -5.55, 12.2, 1, False, False, False
Cabo Negro, Magallanes y de la Antártica Chilena, Chile, -52.93, -70.8, -3, False, False, False
Cabo San Antonio, Buenos Aires, Argentina, -36.04, -56.57, -3, False, False, False
Cádiz, Andalusia, Spain, 36.54, -6.28, 1, False, False, False
Caen, Normandy, France, 49.18, -0.34, 1, False, True, False
Caernarvon, Louisiana, U.S.A., 29.87, -89.91, -6, False, True, True
Cagayan de Oro, Misamis Oriental, Philippines, 8.5, 124.66, 8, False, False, False
Cagliari, Sardinia, Italy, 39.19, 9.1, 1, False, False, False
Cai Mep, Bà Rịa-Vũng Tàu, Vietnam, 10.53, 107.02, 7, False, False, False
Phu My, Ba Ria-Vung Tau, Vietnam, 10.51, 107.01, 7, False, False, False
Cairns, Queensland, Australia, -16.93, 145.78, 10, False, False, False
Cakerawala Marine Terminal, Terengganu, Malaysia, 7.13, 103.1, 7, False, False, False
Cala Figuera, Balearic Islands, Spain, 39.89, 4.27, 1, False, False, False
Calabar, Cross River State, Nigeria, 4.97, 8.32, 1, False, False, False
Calais, Hauts-de-France, France, 50.97, 1.84, 1, False, True, False
Calbuco, Los Lagos, Chile, -41.47, -72.94, -3, True, False, False
Kolkata, West Bengal, India, 22.55, 88.29, 5, False, False, False
Caldera, Atacama, Chile, -27.06, -70.84, -3, True, False, False
Caldera, Puntarenas, Costa Rica, 9.91, -84.72, -6, False, False, False
Caleta Clarencia, Magallanes y la Antártica Chilena, Chile, -52.93, -70.16, -3, False, False, False
Comodoro Rivadavia, Chubut, Argentina, -45.75, -67.37, -3, False, False, False
Caleta Olivares, Santa Cruz, Argentina, -45.87, -67.48, -3, False, False, False
Caleta Olivia, Santa Cruz, Argentina, -46.42, -67.47, -3, False, False, False
Callao, Callao, Peru, -12.05, -77.15, -5, False, False, False
Calumet, Michigan, U.S.A., 41.88, -87.61, -6, False, False, False
Port of Spain, Trinidad and Tobago, Trinidad and Tobago, 10.09, -61.04, -4, False, False, False
Cam Pha, Quang Ninh, Vietnam, 21.02, 107.38, 7, False, False, False
Camar Marine Terminal, Papua, Indonesia, -6.28, 113.0, 7, False, False, False
Camden, New Jersey, U.S.A., 39.94, -75.14, -5, False, True, True
Hackberry, Louisiana, U.S.A., 30.04, -93.33, -6, False, True, True
Campana, Buenos Aires, Argentina, -34.15, -58.96, -3, False, False, False
Campbeltown, Scotland, U.K., 55.42, -5.6, 0, False, False, False
Campden Park, Saint Vincent, St. Vincent, 13.15, -61.23, -4, False, False, False
Cẩm Phả, Quảng Ninh, Vietnam, 21.02, 107.38, 7, False, False, False
No change needed: Campo Boe Oil Terminal, Italy., Italy, 44.28, 8.46, 1, False, False, False
Çanakkale, Çanakkale, Turkey, 40.15, 26.4, 3, False, False, False
Abidjan, Abidjan Autonomous District, Ivory Coast, 5.27, -4.02, 0, False, False, False
Saint John, New Brunswick, Canada, 45.26, -66.06, -4, False, True, True
Saint John, New Brunswick, Canada, 45.2, -65.98, -4, False, True, True
Saint John, New Brunswick, Canada, 45.19, -65.99, -4, False, True, True
Cancun, Quintana Roo, Mexico, 21.06, -86.78, -5, False, False, False
Canoas, Rio Grande do Sul, Brazil, -29.93, -51.24, -3, False, False, False
Campeche, Campeche, Mexico, 19.67, -92.08, -6, False, False, False
Guangzhou, Guangdong, China, 23.07, 113.42, 8, False, False, False
Canvey Island, Essex, U.K., 51.5, 0.57, 0, False, True, False
Canvey Island, England, U.K., 51.47, 0.24, 0, False, True, False
Tangshan, Hebei, China, 38.78, 118.72, 8, False, False, False
Caofeidian, Hebei, China, 38.91, 118.5, 8, False, False, False
Caojing, Shanghai, China, 30.77, 121.45, 8, False, False, False
Shanghai, Shanghai, China, 30.74, 121.42, 8, False, False, False
Limbe, Southwest, Cameroon, 3.98, 9.13, 1, False, False, False
Touros, Rio Grande do Norte, Brazil, -4.78, -34.91, -2, False, False, False
Cape Cod, Massachusetts, U.S.A., 41.77, -70.5, -5, False, True, True
Cape Cod Canal - South, Massachusetts, U.S.A., 41.68, -70.68, -5, False, True, True
Cape Feto, Sicily, Italy, 37.56, 12.41, 1, False, False, False
Cape Horn, Magallanes Region, Chile, -56.15, -67.22, -3, False, False, False
Cape Leeuwin, Western Australia, Australia, -34.63, 114.59, 8, False, False, False
Cape Limboh, Southwest, Cameroon, 3.98, 9.13, 1, False, False, False
Cape of Good Hope, Western Cape, South Africa, -34.7, 18.12, 1, False, False, False
Harper, Maryland, Liberia, 4.37, -7.73, 0, False, False, False
Cape Race, Newfoundland and Labrador, Canada, 46.27, -52.81, -4, False, True, True
Cape Town, Western Cape, South Africa, -33.91, 18.43, 2, False, False, False
Santa Maria, Sal, Cape Verde Is., 16.74, -22.98, -1, False, False, False
Cape Vincent, New York, Canada, 44.13, -76.35, -5, False, False, False
Cape Wrath, Scotland, U.K., 58.77, -5.0, 0, False, True, False
Cape Zhelaniya, Arkhangelsk Oblast, Russia, 76.95, 68.61, 3, False, False, False
Capline Tanker Dock, Mississippi, U.S.A., 30.03, -90.84, -6, False, True, True
Captain Field, England, U.K., 58.32, -1.73, 0, False, True, False
Carboneras, Almería, Spain, 36.97, -1.9, 1, False, False, False
Cardiff, Wales, U.K., 51.45, -3.16, 0, False, True, False
Carenero, Miranda, Venezuela, 10.52, -66.05, -4, False, False, False
Caripito, Monagas, Venezuela, 10.15, -63.03, -4, False, False, False
Carlisle, Pennsylvania, U.S.A., 29.68, -89.96, -6, False, True, True
Martigues, Provence-Alpes-Côte d'Azur, France, 43.34, 5.34, 1, False, False, False
Carrara, Tuscany, Italy, 44.03, 10.04, 1, False, False, False
Cartagena, Murcia, Spain, 37.57, -0.96, 1, False, False, False
Cartagena, Bolívar, Colombia, 10.4, -75.54, -5, False, False, False
Cartagena, Murcia, Spain, 37.57, -0.98, 1, False, False, False
Carteret, New Jersey, U.S.A., 40.59, -74.21, -5, False, True, True
Casablanca, Casablanca-Settat, Morocco, 33.61, -7.6, 0, True, False, False
Castellón de la Plana, Castellón, Spain, 39.94, 0.05, 1, False, False, False
Castellón de la Plana, Castellón, Spain, 39.97, 0.03, 1, False, False, False
Castellón de la Plana, Castellón, Spain, 39.94, 0.03, 1, False, False, False
Castellon de la Plana, Castellón, Spain, 39.95, 0.02, 1, False, False, False
Castlebay, Scotland, U.K., 56.95, -7.49, 0, False, False, False
Castle Peak, Guangdong, China, 22.36, 113.92, 8, False, False, False
Castries, Castries., St. Lucia, 14.01, -60.99, -4, False, False, False
Vung Tau, Ba Ria-Vung Tau, Vietnam, 10.39, 107.09, 7, False, False, False
Catania, Sicily, Italy, 37.49, 15.1, 1, False, False, False
Plymouth, England, U.K., 50.36, -4.15, 0, False, True, False
Caucedo, Santo Domingo, Dominican Republic, 18.44, -69.63, -4, False, False, False
Cayo Arcas, Campeche, Mexico, 20.13, -92.0, -6, False, False, False
Cebu City, Cebu, Philippines, 10.29, 123.9, 8, False, False, False
Ceiba, Litoral, Equatorial Guinea, 1.4, 9.22, 1, False, False, False
Cendor Terminal, Terengganu, Malaysia, 5.57, 104.56, 7, False, False, False
Algeciras, Andalusia, Spain, 36.17, -5.41, 1, False, False, False
Huelva, Andalusia, Spain, 36.17, -5.4, 1, False, False, False
Ceuta, Ceuta, Spain, 35.89, -5.31, 1, False, False, False
Cezi Dao, Zhejiang, China, 30.08, 121.95, 8, False, False, False
CFD Terminal, "China is likely referring to Dalian,  Liaoning.", China, 38.78, 118.72, 8, False, False, False
Chacabuco, Santiago Metropolitan Region, Chile, -45.47, -72.83, -3, True, False, False
Chai Wan, Hong Kong, China, 22.29, 114.17, 8, False, False, False
Chalkis, Central Greece, Greece, 38.47, 23.59, 2, False, False, False
Challis, Western Australia, Australia, -12.13, 125.01, 8, False, False, False
Chalmette, Louisiana, U.S.A., 29.93, -89.99, -6, False, True, True
Champ Moudi, Extreme-North, Cameroon, 4.13, 8.52, 1, False, False, False
Chanaral, Atacama, Chile, -26.35, -70.65, -3, True, False, False
Chandler, Quebec, Canada, 48.34, -64.66, -5, False, True, True
Changhang, Jeollabuk-do, South Korea, 35.99, 126.71, 9, False, False, False
Singapore, Singapore, Singapore, 1.31, 104.03, 8, False, False, False
Zhangjiagang, Jiangsu, China, 31.97, 120.4, 8, False, False, False
Shanghai, Shanghai, China, 31.08, 122.34, 8, False, False, False
Changjiangkou, Zhejiang, China, 31.37, 121.5, 8, False, False, False
Changsha, Hunan, China, 28.2, 112.96, 8, False, False, False
Changshu, Jiangsu, China, 31.77, 120.94, 8, False, False, False
Charco Azul, Panama Province, Panama, 8.21, -82.86, -5, False, False, False
Charleston, South Carolina, U.S.A., 32.79, -79.92, -5, False, True, True
Charlestown, Nevis, St. Kitts, 17.14, -62.63, -4, False, False, False
Rio De La Plata, Buenos Aires, Argentina, -36.0, -56.5, -3, False, False, False
Rio De La Plata, Buenos Aires, Argentina, -36.1, -56.63, -3, False, False, False
Rio De La Plata, Buenos Aires, Argentina, -36.04, -56.57, -3, False, False, False
Charlotte Amalie, Virgin Islands, Virgin Is. (U.S.A.), 18.33, -64.93, -4, False, True, True
Charlottetown, Prince Edward Island, Canada, 46.23, -63.12, -4, False, True, True
Chatham, Kent, U.K., 51.4, 0.55, 0, False, True, False
Chatham, Massachusetts, U.S.A., 41.65, -70.01, -5, False, True, True
Cheboygan, Michigan, U.S.A., 45.65, -84.47, -5, False, False, False
Yantai, Shandong, China, 37.56, 121.39, 8, False, False, False
Chelsea, Massachusetts, U.S.A., 42.36, -71.04, -5, False, True, True
Chelyuskina, Volgograd Oblast, Russia, 77.75, 104.18, 7, False, False, False
Chennai, Tamil Nadu, India, 13.11, 80.3, 5, False, False, False
Chenshan, Jiangsu, China, 30.68, 121.36, 8, False, False, False
Cherbourg-en-Cotentin, Normandy, France, 49.65, -1.61, 1, False, True, False
Cherry Point, North Carolina, U.S.A., 48.86, -122.76, -8, False, True, True
Chesapeake, Virginia, U.S.A., 36.84, -76.29, -5, False, True, True
Chesapeake City, Maryland, U.S.A., 39.56, -75.56, -5, False, True, True
Chesapeake City, Maryland, U.S.A., 39.53, -75.85, -5, False, True, True
Chesterfield Inlet, Nunavut, Canada, 63.32, -90.75, -6, False, False, False
Chí Linh, Hải Dương, Vietnam, 9.8, 107.99, 7, False, False, False
Chiba, Chiba, Japan, 35.59, 140.09, 9, False, False, False
Chicago, Illinois, U.S.A., 41.88, -87.61, -6, False, False, False
Keelung, Taiwan, Taiwan, 25.15, 121.75, 8, False, False, False
Vung Tau, Ba Ria-Vung Tau, Vietnam, 7.34, 108.31, 7, False, False, False
Chimbote, Ancash, Peru, -9.08, -78.62, -5, False, False, False
Kinmen, Fujian, Taiwan, 24.45, 118.07, 8, False, False, False
China Bay, Eastern Province, Sri Lanka, 8.56, 81.21, 5, False, False, False
Chinguetti, Adrar, Mauritania, 17.72, -16.77, -1, False, False, False
Zhenjiang, Jiangsu, China, 32.22, 119.44, 8, False, False, False
Qinhuangdao, Hebei, China, 39.93, 119.67, 8, False, False, False
Qinhuangdao, Hebei, China, 39.92, 119.65, 8, False, False, False
Chioggia, Veneto, Italy, 45.23, 12.29, 1, False, False, False
Chios, North Aegean, Greece, 38.37, 26.14, 2, False, False, False
Chiriqui Grande, Bocas del Toro, Panama, 8.97, -82.1, -5, False, False, False
Chita, Aichi, Japan, 34.97, 136.82, 9, False, False, False
Chattogram, Chattogram, Bangladesh, 22.31, 91.81, 6, False, False, False
Chiwan, Guangdong, China, 22.46, 113.88, 8, False, False, False
Bangkok, Bangkok, Thailand, 13.7, 100.55, 7, False, False, False
Chornomorsk, Odesa Oblast, Ukraine, 46.33, 30.66, 2, False, False, False
Christchurch, Canterbury, New Zealand, -43.61, 172.72, 13, True, False, False
Christiansted, Virgin Islands, Virgin Is. (U.S.A.), 17.75, -64.7, -4, False, True, True
Christmas Island, Christmas Island Territory, Australia, -10.43, 105.67, 7, False, False, False
Suizhong County, Liaoning, China, 29.89, 122.04, 8, False, False, False
Chumphon, Chumphon Province, Thailand, 10.46, 99.26, 7, False, False, False
Ciénaga, Magdalena, Colombia, 11.08, -74.22, -5, False, False, False
Cienfuegos, Cienfuegos, Cuba, 22.14, -80.49, -5, False, False, False
Zierbena, Basque Country, Spain, 43.37, -3.1, 1, False, False, False
Cigading, Banten, Indonesia, -6.0, 105.97, 7, False, False, False
Cilacap, Central Java, Indonesia, -7.75, 109.01, 7, False, False, False
Cilegon, Banten, Indonesia, -5.99, 105.98, 7, False, False, False
Cinta, East Kalimantan, Indonesia, -5.45, 106.18, 7, False, False, False
Citra Ujung Baru, North Sumatra, Indonesia, 3.79, 98.7, 7, False, False, False
Ciudad del Carmen, Campeche, Mexico, 18.65, -91.85, -6, False, False, False
Ciudad Madero, Tamaulipas, Mexico, 22.26, -97.81, -6, False, False, False
Santo Domingo, Distrito Nacional, Dominican Republic, 18.47, -69.88, -4, False, False, False
Civitavecchia, Lazio, Italy, 42.1, 11.78, 1, False, False, False
Cangzhou, Hebei, China, 31.37, 121.5, 8, False, False, False
Clarence Bay, Ascension Island, Ascension, -7.89, -14.39, 0, False, False, False
Clarence Island, Magallanes y la Antártica Chilena, Chile, -52.93, -70.16, -3, False, False, False
Stockton-on-Tees, England, U.K., 54.58, -1.21, 0, False, True, False
Cleethorpes, Lincolnshire, U.K., 53.58, -0.07, 0, False, True, False
Cleveland, Ohio, U.S.A., 41.52, -81.72, -5, False, False, False
Clifton Point, New Providence, Bahamas, 25.08, -77.35, -5, False, False, False
Cloghan Point, Northern Ireland, U.K., 54.74, -5.7, 0, False, False, False
Clov, Angola, Angola, -7.45, 11.57, 1, False, False, False
Glasgow, Scotland, U.K., 55.96, -4.76, 0, False, True, False
Coari, Amazonas, Brazil, -4.08, -63.13, -4, False, False, False
Coatzacoalcos, Veracruz, Mexico, 18.13, -94.4, -6, False, False, False
Kochi, Kerala, India, 9.97, 76.27, 5, False, False, False
Kochi, Kerala, India, 10.0, 76.04, 5, False, False, False
Cockatoo Island, New South Wales, Australia, -16.11, 123.61, 8, False, False, False
Cockburn Harbour, Turks and Caicos Islands, Turks and Caicos Is., 21.47, -71.15, -5, False, False, False
Coco Solo, Colón, Panama, 9.37, -79.89, -5, False, False, False
Coconut Point, Saint Lucia, St. Lucia, 14.01, -60.99, -4, False, False, False
Cod Bay, Eastern Province, Sri Lanka, 8.56, 81.21, 5, False, False, False
Coega, Eastern Cape, South Africa, -33.8, 25.69, 2, False, False, False
Sable Island, Nova Scotia, Canada, 43.85, -60.61, -4, False, True, True
Cold Bay, Alaska, U.S.A., 55.21, -162.69, -9, False, False, False
Colombo, Western Province, Sri Lanka, 6.95, 79.85, 5, False, False, False
Colón, Colón, Panama, 9.39, -79.92, -5, False, False, False
Colón, Colón, Panama, 9.36, -79.89, -5, False, False, False
Colón, Entre Ríos, Argentina, -32.22, -58.13, -3, False, False, False
Colon, Colon, Panama, 9.35, -79.92, -5, False, False, False
Comeau Bay, British Columbia, Canada, 49.23, -68.13, -5, False, True, True
Come-By-Chance, Newfoundland and Labrador, Canada, 47.8, -54.02, -3, False, True, True
Comodoro Rivadavia, Chubut, Argentina, -45.87, -67.48, -3, False, False, False
Conakry, Conakry Autonomous Region, Guinea, 9.52, -13.72, 0, False, False, False
Santa Rita, Paraíba, Brazil, -23.97, -46.3, -3, False, False, False
Concepcion del Uruguay, Entre Rios, Argentina, -32.49, -58.2, -3, False, False, False
Concession, Missouri, U.S.A., 29.83, -90.0, -6, False, True, True
Conchan, Lima, Peru, -12.27, -76.94, -5, False, False, False
Constanța, Constanța, Romania, 44.12, 28.69, 2, False, False, False
Contrecoeur, Quebec, Canada, 45.83, -73.29, -5, False, True, True
Convent, Louisiana, U.S.A., 30.02, -90.83, -6, False, True, True
Convent Landing, Mississippi, U.S.A., 30.01, -90.83, -6, False, True, True
Coolkeragh, Northern Ireland, U.K., 55.0, -7.31, 0, False, False, False
Charleston, South Carolina, U.S.A., 32.83, -79.93, -5, False, True, True
North Charleston, South Carolina, U.S.A., 32.88, -79.97, -5, False, True, True
Philadelphia, Pennsylvania, U.S.A., 32.89, -79.96, -5, False, True, True
Charleston, South Carolina, U.S.A., 32.96, -79.92, -5, False, True, True
North Charleston, South Carolina, U.S.A., 32.83, -79.94, -5, False, True, True
North Charleston, South Carolina, U.S.A., 32.89, -79.97, -5, False, True, True
North Charleston, South Carolina, U.S.A., 32.9, -79.96, -5, False, True, True
Charleston, South Carolina, U.S.A., 32.88, -79.97, -5, False, True, True
Cooper Shop Landing, Mississippi, U.S.A., 30.05, -90.6, -6, False, True, True
Coos Bay, Oregon., U.S.A., 43.38, -124.3, -8, False, True, True
Copenhagen, Denmark, Denmark, 55.71, 12.61, 1, False, True, False
Copenhagen, Denmark, Denmark, 55.69, 12.64, 1, False, True, False
Coquimbo, Coquimbo, Chile, -29.95, -71.33, -3, True, False, False
Cordova, Alaska, U.S.A., 60.55, -145.77, -9, False, True, True
Corinth, Corinthia, Greece, 37.96, 22.95, 2, False, False, False
Corinth, Greece, Greece, 37.91, 23.01, 2, False, False, False
Corinth, West Greece, Greece, 37.96, 22.95, 2, False, False, False
Corinto, Chinandega, Nicaragua, 12.48, -87.17, -6, False, False, False
Cork, County Cork, Ireland, 51.9, -8.49, 0, True, False, False
Corner Brook, Newfoundland and Labrador, Canada, 48.96, -57.95, -3, False, True, True
Coronel, Biobío, Chile, -37.03, -73.15, -3, True, False, False
Corpach, Scotland, U.K., 56.84, -5.12, 0, False, True, False
Corpus Christi, Texas, U.S.A., 27.81, -97.4, -6, False, True, True
A Coruña, Galicia, Spain, 43.36, -8.38, 1, False, False, False
Coryton, England, U.K., 51.5, 0.53, 0, False, True, False
Coryton, Essex, U.K., 51.5, 0.53, 0, False, True, False
Yokkaichi, Mie, Japan, 35.53, 140.0, 9, False, False, False
Cossack, Western Australia, Australia, -19.58, 116.43, 8, False, False, False
Ensenada, Baja California, Mexico, 31.99, -116.86, -8, False, True, True
Costa Maya, Quintana Roo, Mexico, 18.72, -87.69, -5, False, False, False
Cotonou, Littoral, Benin, 6.34, 2.43, 1, False, False, False
Couëron, Pays de la Loire, France, 47.19, -1.6, 1, False, False, False
Lusby, Maryland, U.S.A., 38.4, -76.38, -5, False, True, True
Coveñas, Sucre, Colombia, 9.53, -75.79, -5, False, False, False
Cozumel, Quintana Roo, Mexico, 20.51, -86.97, -5, False, False, False
Novorossiysk, Krasnodar Krai, Russia, 44.71, 37.83, 3, False, False, False
Crib Point, Victoria, Australia, -38.35, 145.23, 11, True, False, False
Cristobal, Colón, Panama, 9.35, -79.92, -5, False, False, False
Crockett, Texas, U.S.A., 38.05, -122.16, -8, False, True, True
Invergordon, Scotland, U.K., 57.69, -4.16, 0, False, True, False
Crotone, Calabria, Italy, 39.09, 17.13, 1, False, False, False
College Point, New York, U.S.A., 40.08, -74.9, -5, False, True, True
Cuddalore, Tamil Nadu, India, 11.71, 79.78, 5, False, False, False
Çukurova, Adana, Turkey, 38.78, 26.92, 3, False, False, False
Cul de Sac Bay, St. Lucia, St. Lucia, 13.99, -61.02, -4, False, False, False
Cul-de-Sac, St. Lucia, St. Lucia, 13.99, -61.02, -4, False, False, False
Cumana, Sucre, Venezuela, 10.46, -64.19, -4, False, False, False
Cumarebo, Falcón, Venezuela, 11.49, -69.36, -4, False, False, False
Araraquara, São Paulo, Brazil, -23.97, -46.3, -3, False, False, False
Cutter Cove, Chile, Chile, -53.17, -70.9, -3, False, False, False
Cuxhaven, Lower Saxony, Germany, 53.87, 8.72, 1, False, True, False
Da Nang, Vietnam, Vietnam, 16.12, 108.22, 7, False, False, False
Ratnagiri, Maharashtra, India, 17.53, 73.14, 5, False, False, False
Dabhol, Maharashtra, India, 17.53, 73.06, 5, False, False, False
Dandong, Liaoning, China, 39.82, 124.16, 8, False, False, False
Daesan, Chungcheongnam-do, South Korea, 37.03, 126.35, 9, False, False, False
Dalian, Liaoning, China, 38.94, 121.66, 8, False, False, False
Dagenham, England, U.K., 51.51, 0.14, 0, False, True, False
Dahej, Gujarat, India, 21.7, 72.49, 5, False, False, False
Da Nang, Da Nang, Vietnam, 8.47, 108.69, 7, False, False, False
Dai Hung, Quang Nam, Vietnam, 8.87, 103.3, 7, False, False, False
Dai Hung Field, Vietnam, Vietnam, 8.47, 108.69, 7, False, False, False
Dakar, Dakar, Senegal, 14.68, -17.42, 0, False, False, False
Dalhousie, New Brunswick, Canada, 48.06, -66.34, -4, False, True, True
Soyo, Zaire, Angola, -7.63, 11.77, 1, False, False, False
Dalian, Liaoning, China, 38.97, 121.66, 8, False, False, False
Dalian, Liaoning, China, 38.96, 121.91, 8, False, False, False
Dalian, Liaoning, China, 38.95, 121.88, 8, False, False, False
Dalian, Liaoning, China, 39.0, 121.89, 8, False, False, False
Dalian, Liaoning, China, 38.98, 121.9, 8, False, False, False
Mackay, Queensland, Australia, -21.26, 149.31, 10, False, False, False
Damietta, Damietta, Egypt, 31.47, 31.76, 2, False, False, False
Dammam, Eastern Province, Saudi Arabia, 26.51, 50.19, 3, False, False, False
Dampier, Western Australia, Australia, -20.65, 116.67, 8, False, False, False
Dampier, Western Australia, Australia, -20.61, 116.75, 8, False, False, False
Dampier, Western Australia, Australia, -20.65, 116.66, 8, False, False, False
Dampier, Western Australia, Australia, -20.64, 116.71, 8, False, False, False
Da Nang, Da Nang, Vietnam, 16.12, 108.22, 7, False, False, False
Dangjin, Chungcheongnam-do, South Korea, 36.92, 126.24, 9, False, False, False
Çanakkale, Çanakkale Province, Turkey, 40.01, 26.13, 3, False, False, False
Çanakkale, Çanakkale Province, Turkey, 40.03, 26.12, 3, False, False, False
Dar-es-Salaam, Dar-es-Salaam, Tanzania, -6.84, 39.3, 3, False, False, False
Darrow, Louisiana, U.S.A., 30.11, -90.99, -6, False, True, True
Augusta, Sicily, Italy, 45.35, 12.25, 1, False, False, False
Dartmouth, Nova Scotia, Canada, 44.66, -63.56, -4, False, True, True
Darwin, Northern Territory, Australia, -12.49, 130.88, 9, False, False, False
Darwin, Northern Territory, Australia, -12.52, 130.85, 9, False, False, False
Darwin, Northern Territory, Australia, -12.47, 130.85, 9, False, False, False
Das Island, Abu Dhabi, U.A.E., 25.16, 52.9, 4, False, False, False
Davant, Louisiana, U.S.A., 29.6, -89.84, -6, False, True, True
Davao City, Davao del Sur, Philippines, 7.12, 125.66, 8, False, False, False
Lagos, Lagos State, Nigeria, 4.76, 7.0, 1, False, False, False
Daxie Dao, Zhejiang, China, 29.92, 122.0, 8, False, False, False
Huizhou, Guangdong, China, 22.69, 114.57, 8, False, False, False
Huizhou, Guangdong, China, 22.67, 114.66, 8, False, False, False
De Kastri, Khabarovsk Krai, Russia, 51.46, 140.79, 10, False, False, False
De Kastri, Khabarovsk Krai, Russia, 51.46, 140.9, 10, False, False, False
Erith, England, U.K., 51.49, 0.19, 0, False, True, False
Deer Park, Texas, U.S.A., 29.75, -95.29, -6, False, True, True
Delaware City, Delaware, U.S.A., 39.58, -75.59, -5, False, True, True
Delfzijl, Groningen, Netherlands, 53.33, 6.94, 1, False, True, False
Delta, British Columbia, Canada, 49.3, -123.09, -8, False, True, True
Delta, Istanbul, Turkey, 36.85, 36.13, 3, False, False, False
Delta Zone, Tacuarembó, Uruguay, -35.07, -55.18, -3, False, False, False
Den Helder, North Holland, Netherlands, 52.96, 4.78, 1, False, True, False
Denpasar, Bali, Indonesia, -8.75, 115.22, 8, False, False, False
Derince, Kocaeli, Turkey, 40.75, 29.86, 3, False, False, False
Dernish Island, County Donegal, Ireland, 52.68, -8.92, 0, True, False, False
Destrehan, Louisiana, U.S.A., 29.93, -90.35, -6, False, True, True
Destrehan, Louisiana, U.S.A., 29.94, -90.36, -6, False, True, True
Detroit, Michigan, U.S.A., 42.32, -83.06, -5, False, False, False
Devonport, Auckland, New Zealand, -36.84, 174.77, 13, True, False, False
Devonport, Tasmania, Australia, -41.15, 146.38, 11, True, False, False
Devonport, England, U.K., 50.38, -4.19, 0, False, True, False
Dhekelia, Dhekelia SBA, Cyprus, 34.97, 33.75, 2, False, False, False
Dhuba, Tabuk, Saudi Arabia, 27.56, 35.54, 3, False, False, False
Diamante, Entre Ríos, Argentina, -32.07, -60.66, -3, False, False, False
Carthage, Tunis, Tunisia, 33.77, 11.9, 1, False, False, False
Diego Garcia, British Indian Ocean Territory, Diego Garcia, -7.29, 72.39, 6, False, False, False
Hai Phong, Hai Phong, Vietnam, 20.55, 106.56, 7, False, False, False
Hereke, Kocaeli, Turkey, 40.78, 29.61, 3, False, False, False
Dili, Dili, East Timor, -8.55, 125.58, 9, False, False, False
Dilovası, Kocaeli, Turkey, 40.76, 29.53, 3, False, False, False
Dillingham, Alaska, U.S.A., 59.03, -158.47, -9, False, False, False
Dinard, Brittany, France, 48.64, -2.04, 1, False, True, False
DIS, Denmark, Denmark, 56.42, 10.93, 1, False, True, False
Discovery Bay, Saint Ann, Jamaica, 18.46, -77.41, -5, False, False, False
Jakarta, Jakarta, Indonesia, -6.07, 106.79, 7, False, False, False
Pointe-Noire, Kouilou, Congo, -4.95, 11.89, 1, False, False, False
Djibouti, Djibouti, Djibouti, 11.61, 43.13, 3, False, False, False
Djurö, Stockholm, Sweden, 58.6, 16.22, 1, False, True, False
Gulfmex, Texas, U.S.A., 27.87, -90.83, -6, False, True, True
Mykolaiv, Mykolaiv Oblast, Ukraine, 46.77, 31.94, 2, False, False, False
Dobo, Maluku, Indonesia, -5.75, 134.17, 9, False, False, False
Miami, Florida, U.S.A., 25.77, -80.14, -5, False, True, True
Doha, Qatar, Qatar, 25.3, 51.56, 3, False, False, False
Domsjö, Västernorrland, Sweden, 63.26, 18.71, 1, False, True, False
Donaldsonville, Louisiana, U.S.A., 30.11, -90.99, -6, False, True, True
Dondra, Southern Province, Sri Lanka, 5.71, 80.59, 5, False, False, False
Dondra Head, Southern Province, Sri Lanka, 5.81, 80.59, 5, False, False, False
Donghai, Jiangsu, China, 28.12, 121.11, 8, False, False, False
Dong Hoi, Quang Binh, Vietnam, 17.5, 106.64, 7, False, False, False
Dongdu, Shandong, China, 24.45, 118.07, 8, False, False, False
Donges, Pays de la Loire, France, 47.3, -2.07, 1, False, False, False
Dongguan, Guangdong, China, 22.9, 113.58, 8, False, False, False
Donghae, Gangwon, South Korea, 37.49, 129.14, 9, False, False, False
Qingdao, Shandong, China, 35.59, 119.79, 8, False, False, False
Dongshan, Fujian, China, 23.75, 117.51, 8, False, False, False
Dongying, Shandong, China, 38.08, 118.95, 8, False, False, False
Dora, Beirut, Lebanon, 33.91, 35.54, 2, False, False, False
Altamira, Tamaulipas, Mexico, 25.0, -96.83, -6, False, False, False
Doraleh, Djibouti, Djibouti, 11.6, 43.08, 3, False, False, False
Dordrecht, South Holland, Netherlands, 51.79, 4.64, 1, False, True, False
Dörtyol, Hatay, Turkey, 36.85, 36.13, 3, False, False, False
Dos Bocas, Tabasco, Mexico, 18.64, -93.17, -6, False, False, False
Douala, Littoral, Cameroon, 4.04, 9.68, 1, False, False, False
Dougoufissa Creek, Kankan Region, Guinea, 10.64, -14.63, 0, False, False, False
Dover, England, U.K., 50.97, 1.52, 1, False, True, False
Dover, England, U.K., 51.03, 1.38, 0, False, True, False
Dover, England, U.K., 51.12, 1.34, 0, False, True, False
Mississippi, Mississippi, U.S.A., 30.34, -91.24, -6, False, True, True
Aratu, Bahia, Brazil, -12.78, -38.48, -3, False, False, False
Robbinston, Maine, U.S.A., 45.06, -67.1, -5, False, True, True
Milford Haven, Wales, U.K., 51.7, -5.0, 0, False, False, False
Drammen, Viken, Norway, 59.74, 10.24, 1, False, True, False
Drapetsona, Attica, Greece, 37.94, 23.63, 2, False, False, False
Draugen Field, Norway, Norway, 64.35, 7.87, 1, False, False, False
Kenai Peninsula Borough, Alaska, U.S.A., 60.55, -152.13, -9, False, True, True
Drogheda, County Louth, Ireland, 53.72, -6.31, 0, True, False, False
Drovyanoy, Sakha Republic, Russia, 72.4, 72.85, 5, False, False, False
Druif, Aruba, Aruba, 12.52, -70.04, -4, False, False, False
Drujba, Sofia Province, Bulgaria, 42.45, 27.54, 2, False, False, False
Druzba, Sofia, Bulgaria, 42.45, 27.54, 2, False, False, False
Rio de Janeiro, Rio de Janeiro, Brazil, -23.06, -44.23, -3, False, False, False
Guarujá, São Paulo, Brazil, -22.82, -43.15, -3, False, False, False
Du Pont, Mississippi, U.S.A., 30.05, -90.52, -6, False, True, True
Duba, Tabuk Province, Saudi Arabia, 27.32, 35.73, 3, False, False, False
Duba, Tabuk, Saudi Arabia, 27.32, 35.74, 3, False, False, False
Duba, Tabuk, Saudi Arabia, 27.56, 35.54, 3, False, False, False
Dubai, Dubai, U.A.E., 25.27, 55.28, 4, False, False, False
Dubai, Dubai, U.A.E., 25.25, 55.26, 4, False, False, False
Dublin, Ireland, Ireland, 53.34, -6.2, 0, True, False, False
Dubrovnik, Dubrovnik-Neretva, Croatia, 42.66, 18.08, 1, False, False, False
Dubrovnik, Dubrovnik-Neretva, Croatia, 42.64, 18.11, 1, False, False, False
Dugi Rat, Split-Dalmatia, Croatia, 43.44, 16.64, 1, False, False, False
Nanaimo, British Columbia, Canada, 49.17, -123.93, -8, False, True, True
Kerteh, Terengganu, Malaysia, 5.8, 104.17, 7, False, False, False
Duluth, Minnesota, U.S.A., 46.71, -92.02, -6, False, False, False
Dumai, Riau, Indonesia, 1.69, 101.46, 7, False, False, False
Dundalk, Maryland, U.S.A., 39.27, -76.57, -5, False, True, True
Dundee, Scotland, U.K., 56.46, -2.94, 0, False, True, False
Dunedin, Otago, New Zealand, -45.88, 170.51, 13, True, False, False
Dung Quat, Quang Ngai, Vietnam, 15.39, 108.86, 7, False, False, False
Dungeness, Magallanes, Chile, -52.37, -69.03, -3, False, False, False
Dunkerque, Hauts-de-France, France, 51.01, 2.18, 1, False, True, False
Dunkerque, Hauts-de-France, France, 51.03, 2.16, 1, False, True, False
Dunkirk, Hauts-de-France, France, 51.06, 2.35, 1, False, True, False
Durban, KwaZulu-Natal, South Africa, -29.88, 31.04, 2, False, False, False
Durrës, Durrës County, Albania, 41.31, 19.45, 1, False, False, False
Dushan, Guizhou, China, 30.59, 121.07, 8, False, False, False
Dutch Bayou, Mississippi, U.S.A., 30.05, -90.58, -6, False, True, True
Unalaska, Alaska, U.S.A., 53.92, -166.47, -9, False, False, False
Duvic, Mississippi, U.S.A., 29.32, -89.38, -6, False, True, True
Port Harcourt, Rivers, Nigeria, 4.78, 5.28, 0, False, False, False
Oakland, California, U.S.A., 27.92, -82.43, -5, False, True, True
East Intercourse Island, Western Australia, Australia, -20.65, 116.67, 8, False, False, False
East London, Eastern Cape, South Africa, -33.03, 27.91, 2, False, False, False
East Port Said, Port Said, Egypt, 31.26, 32.32, 2, False, False, False
Singapore, Central Singapore, Singapore, 1.23, 103.89, 8, False, False, False
Singapore, Singapore, Singapore, 1.26, 103.96, 8, False, False, False
Eastham, England, U.K., 53.33, -2.91, 0, False, False, False
Eastport, Maine, U.S.A., 44.91, -66.98, -5, False, True, True
Eastport, Maine, U.S.A., 44.89, -67.0, -5, False, True, True
Ebeye, Marshall Islands, Marshall Is., 8.78, 167.73, 12, False, False, False
Ebok, Akwa Ibom, Nigeria, 4.09, 8.17, 1, False, False, False
Ebome, South Region, Cameroon, 2.81, 9.79, 1, False, False, False
EC Sweden, Sweden, Sweden, 59.72, 19.07, 1, False, True, False
Eccles, England, U.K., 53.33, -2.91, 0, False, False, False
Eckernförde, Schleswig-Holstein, Germany, 54.47, 9.86, 1, False, True, False
Bogotá, Cundinamarca, Colombia, 10.32, -75.51, -5, False, False, False
ECUK, England, U.K., 53.63, -0.16, 0, False, True, False
Eden, New South Wales, Australia, -37.07, 149.93, 11, True, False, False
Edgard, Louisiana, U.S.A., 30.05, -90.56, -6, False, True, True
Edgewater, New York, U.S.A., 40.82, -73.97, -5, False, True, True
Edstrandsbassangen, Västmanland, Sweden, 58.6, 16.22, 1, False, True, False
Eemshaven, Groningen, Netherlands, 53.45, 6.83, 1, False, True, False
Bergama, İzmir, Turkey, 38.78, 26.92, 3, False, False, False
Egersund, Rogaland, Norway, 58.45, 5.99, 1, False, True, False
Tulear, Anosy, Madagascar, -25.06, 47.0, 3, False, False, False
Eilat, Southern District, Israel, 29.52, 34.94, 2, False, False, False
El Alamein, Matrouh, Egypt, 30.98, 28.87, 2, False, False, False
El Chaure, Anzoátegui, Venezuela, 10.24, -64.63, -4, False, False, False
El Dekheila, Alexandria, Egypt, 31.14, 29.81, 2, False, False, False
Ferrol, Galicia, Spain, 43.47, -8.25, 1, False, False, False
Port Sudan, Red Sea State, Sudan, 19.61, 37.23, 2, False, False, False
El Meks, Alexandria, Egypt, 31.19, 29.87, 2, False, False, False
El Palito, Carabobo, Venezuela, 10.5, -68.12, -4, False, False, False
Port Isabel, Texas, U.S.A., 28.09, -93.02, -6, False, True, True
El Segundo, California, U.S.A., 33.87, -118.5, -8, False, True, True
Maracaibo, Zulia, Venezuela, 10.75, -71.55, -4, False, False, False
Savannah, Georgia, U.S.A., 32.09, -80.99, -5, False, True, True
Brunsbüttel, Schleswig-Holstein, Germany, 53.65, 9.51, 1, False, True, False
Hamburg, Hamburg, Germany, 53.88, 9.14, 1, False, True, False
Grand Gulf, Mississippi, U.S.A., 29.61, -89.87, -6, False, True, True
Eleusis, Attica, Greece, 38.03, 23.54, 2, False, False, False
Elizabeth, New Jersey, U.S.A., 40.7, -74.01, -5, False, True, True
Norfolk, Virginia, U.S.A., 36.84, -76.29, -5, False, True, True
Ellesmere Port, Cheshire, U.K., 53.29, -2.89, 0, False, False, False
Elnesvågen, Møre og Romsdal, Norway, 62.85, 7.15, 1, False, False, False
Helsingør, Zealand, Denmark, 56.03, 12.62, 1, False, True, False
Emden, Lower Saxony, Germany, 53.33, 7.18, 1, False, True, False
Emmastad, Curaçao, Netherlands Antilles, 12.12, -68.94, -4, False, False, False
Empalme, Sonora, Mexico, 27.91, -110.88, -7, False, False, False
Empire, Louisiana, U.S.A., 29.39, -89.6, -6, False, True, True
Empire, Oregon, U.S.A., 43.38, -124.3, -8, False, True, True
Emu Bay, South Australia, Australia, -41.05, 145.91, 11, True, False, False
English Bay, Ascension Island, Ascension, -7.89, -14.39, 0, False, False, False
Ennore, Tamil Nadu, India, 13.26, 80.34, 5, False, False, False
Ensenada, Buenos Aires, Argentina, -34.85, -57.89, -3, False, False, False
Ensenada, Baja California, Mexico, 31.85, -116.62, -8, False, False, True
Aabenraa, Region of Southern Denmark, Denmark, 55.03, 9.44, 1, False, True, False
Erawan, Loei, Thailand, 9.07, 101.41, 7, False, False, False
Erawan, Kanchanaburi, Thailand, 9.08, 101.23, 7, False, False, False
Ereğli, Zonguldak, Turkey, 41.28, 31.41, 3, False, False, False
Ereğli, Zonguldak, Turkey, 40.97, 27.96, 3, False, False, False
Ereğli, Zonguldak, Turkey, 41.53, 31.9, 3, False, False, False
Erha Terminal, Akwa Ibom, Nigeria, 5.35, 4.33, 0, False, False, False
Erith, England, U.K., 51.47, 0.24, 0, False, True, False
Erith, England, U.K., 51.49, 0.18, 0, False, True, False
Emin, Xinjiang, China, 19.73, 109.2, 8, False, False, False
Es Sider, Al Wahat District, Libya, 30.7, 18.4, 2, False, False, False
Esbjerg, Region of Southern Denmark, Denmark, 55.47, 8.42, 1, False, True, False
Escobar, Buenos Aires, Argentina, -34.24, -58.76, -3, False, False, False
Escravos, Delta State, Nigeria, 5.47, 4.99, 1, False, False, False
Esmeraldas, Esmeraldas, Ecuador, 1.05, -79.72, -5, False, False, False
Espadarte, Rio de Janeiro, Brazil, -22.7, -40.46, -3, False, False, False
Esperance, Western Australia, Australia, -33.87, 121.9, 8, False, False, False
Espirito Santo, Espírito Santo, Brazil, -21.21, -39.74, -3, False, False, False
Espiritu Santo, Sanma, Vanuatu, -15.52, 167.19, 11, False, False, False
New Orleans, Louisiana, U.S.A., 29.96, -90.05, -6, False, True, True
Abidjan, Lagunes, Ivory Coast, 5.07, -4.39, 0, False, False, False
Esquimalt, British Columbia, Canada, 48.44, -123.44, -8, False, True, True
Thurrock, Essex, U.K., 51.51, 0.15, 0, False, True, False
Purfleet, Essex, U.K., 51.47, 0.24, 0, False, True, False
Estancia, Iloilo, Philippines, 10.69, 122.58, 8, False, False, False
Etajima, Hiroshima, Japan, 34.19, 132.49, 9, False, False, False
Port-Gentil, Ogooué-Maritime, Gabon, -3.73, 10.55, 1, False, False, False
Istres, Provence-Alpes-Côte d'Azur, France, 43.34, 5.34, 1, False, False, False
Rotterdam, South Holland, Netherlands, 51.96, 4.04, 1, False, True, False
Rotterdam, South Holland, Netherlands, 51.97, 4.11, 1, False, True, False
Rotterdam, South Holland, Netherlands, 51.97, 4.08, 1, False, True, False
Rotterdam, South Holland, Netherlands, 51.97, 4.07, 1, False, True, False
Rotterdam, South Holland, Netherlands, 51.94, 4.05, 1, False, True, False
Rotterdam, South Holland, Netherlands, 51.95, 4.09, 1, False, True, False
Europoort, South Holland, Netherlands, 51.96, 4.14, 1, False, True, False
Rotterdam, South Holland, Netherlands, 51.92, 4.21, 1, False, True, False
Everett, Massachusetts, U.S.A., 42.39, -71.06, -5, False, True, True
Everett, Washington, U.S.A., 47.98, -122.23, -8, False, True, True
Everingen, Provincie Utrecht, Netherlands, 51.46, 3.69, 1, False, True, False
Everton, Berbice, Guyana, 6.19, -57.53, -4, False, False, False
Teesport, England, U.K., 54.61, -1.16, 0, False, True, False
Exmouth, England, U.K., 50.62, -3.42, 0, False, True, False
Balikpapan, East Kalimantan, Indonesia, -1.8, 105.14, 7, False, False, False
Baton Rouge, Louisiana, U.S.A., 30.48, -91.2, -6, False, True, True
New Orleans, Louisiana, U.S.A., 29.92, -90.2, -6, False, True, True
Faaborg, Region of Southern Denmark, Denmark, 55.09, 10.24, 1, False, True, False
Faaborg, South Denmark, Denmark, 55.09, 10.24, 1, False, True, False
Faeringehavn, Kujalleq, Greenland, 63.68, -51.51, -2, False, False, False
Fagerstrand, Viken, Norway, 59.73, 10.58, 1, False, True, False
Fair Isle, Scotland, U.K., 59.65, -1.47, 0, False, True, False
Fair Isle, Scotland, U.K., 59.45, -2.0, 0, False, True, False
Fairless Hills, Pennsylvania, U.S.A., 40.13, -74.82, -5, False, True, True
Halifax, Nova Scotia, Canada, 44.64, -63.54, -4, False, True, True
Falconara, Marche, Italy, 43.65, 13.4, 1, False, False, False
Falconara Marittima, Marche, Italy, 43.74, 13.55, 1, False, False, False
Falkenberg, Halland, Sweden, 56.9, 12.49, 1, False, True, False
Fall River, Massachusetts, U.S.A., 41.65, -71.21, -5, False, True, True
Falmouth, England, U.K., 50.16, -5.05, 0, False, True, False
Famagusta, Famagusta District, Cyprus, 35.13, 33.94, 2, False, False, False
Fangcheng, Guangxi, China, 21.61, 108.33, 8, False, False, False
Fangchenggang, Guangxi, China, 21.6, 108.38, 8, False, False, False
Farwah Island, Libya, Libya, 33.85, 12.03, 1, False, False, False
Faslane, Argyll and Bute, U.K., 56.06, -4.82, 0, False, True, False
Fastnet, Ireland, Ireland, 51.27, -9.57, 0, True, False, False
Fastnet, County Cork, Ireland, 51.36, -9.45, 0, True, False, False
Fateh Terminal, Dubai., U.A.E., 25.6, 54.52, 4, False, False, False
Karachi, Sindh, Pakistan, 24.78, 67.29, 5, False, False, False
Faustina, Louisiana, U.S.A., 30.11, -90.96, -6, False, True, True
Fawley, England, U.K., 50.84, -1.33, 0, False, True, False
Macapá, Amapá, Brazil, -0.06, -51.1, -3, False, False, False
Felixstowe, Suffolk, U.K., 51.96, 1.3, 0, False, True, False
Fengcheng, Jiangxi, China, 30.77, 121.45, 8, False, False, False
Fengjing, Shanghai, China, 30.69, 121.29, 8, False, False, False
Fengxian, Shanghai, China, 30.77, 121.45, 8, False, False, False
Feodosia, Crimea, Ukraine, 45.08, 35.49, 3, False, False, False
Malabo, Bioko Island, Equatorial Guinea, 3.79, 8.73, 1, False, False, False
Ferndale, Michigan, U.S.A., 48.83, -122.72, -8, False, True, True
Ferryland, Newfoundland and Labrador, Canada, 47.02, -52.87, -3, False, True, True
Fingringhoe, England, U.K., 51.85, 0.97, 0, False, True, False
A Coruña, Galicia, Spain, 42.88, -9.95, -1, False, False, False
Finisterre, Galicia, Spain, 42.88, -10.2, -1, False, False, False
Finnart, Scotland, U.K., 56.1, -4.84, 0, False, True, False
Finucane Island, Western Australia, Australia, -20.32, 118.58, 8, False, False, False
Florence, Tuscany, Italy, 40.91, 18.34, 1, False, False, False
Mississippi City, Mississippi, U.S.A., 30.11, -90.96, -6, False, True, True
Fisher Island, Florida, U.S.A., 25.77, -80.14, -5, False, True, True
Fisherman Islands, Queensland, Australia, -27.38, 153.17, 10, False, False, False
Fiumicino, Lazio, Italy, 41.75, 12.16, 1, False, False, False
Flensburg, Schleswig-Holstein, Germany, 54.8, 9.44, 1, False, True, False
Florida Strait, Florida, U.S.A., 27.5, -79.5, -5, False, True, True
Florø, Vestland, Norway, 61.6, 5.03, 1, False, True, False
Flotta, Scotland, U.K., 58.85, -3.12, 0, False, True, False
Fluminense, Rio de Janeiro, Brazil, -22.64, -40.42, -3, False, False, False
Vlissingen, Zeeland, Netherlands, 51.44, 3.6, 1, False, True, False
Flying Fish Cove, Christmas Island, Christmas Island, -10.43, 105.67, 7, False, False, False
Foça, İzmir, Turkey, 38.78, 26.92, 3, False, False, False
Fuzhou, Fujian, China, 25.98, 119.44, 8, False, False, False
Forcados, Delta State, Nigeria, 5.17, 5.11, 0, False, False, False
Dagenham, England, U.K., 51.51, 0.15, 0, False, True, False
Foron Bay, Greece, Greece, 37.94, 23.63, 2, False, False, False
Fort-de-France, Martinique, Martinique, 14.6, -61.07, -4, False, False, False
Fort-de-France, Martinique, Martinique, 14.59, -61.05, -4, False, False, False
Fort Lauderdale, Florida, U.S.A., 26.09, -80.12, -5, False, True, True
Fort William, Scotland, U.K., 56.82, -5.12, 0, False, True, False
Fortaleza, Ceará, Brazil, -3.67, -38.49, -3, False, False, False
Fos, Occitanie, France, 43.41, 4.88, 1, False, False, False
Fos-sur-Mer, Provence-Alpes-Côte d'Azur, France, 43.41, 4.9, 1, False, False, False
Fos-sur-Mer, Provence-Alpes-Côte d'Azur, France, 43.43, 4.87, 1, False, False, False
Fos-sur-Mer, Provence-Alpes-Côte d'Azur, France, 43.42, 4.83, 1, False, False, False
Fos-sur-Mer, Provence-Alpes-Côte d'Azur, France, 43.4, 4.85, 1, False, False, False
Fos-sur-Mer, Provence-Alpes-Côte d'Azur, France, 43.43, 4.89, 1, False, False, False
Fos-sur-Mer, Bouches-du-Rhône, France, 43.45, 4.86, 1, False, False, False
Fos-sur-Mer, Bouches-du-Rhône, France, 43.41, 4.9, 1, False, False, False
Four Vanguard, Western Australia, Australia, -20.91, 114.9, 8, False, False, False
Fowey, Cornwall, U.K., 50.33, -4.63, 0, False, True, False
Foynes, Ireland, Ireland, 52.61, -9.11, 0, True, False, False
Foynes, County Limerick, Ireland, 52.63, -9.12, 0, True, False, False
Fr Atl, "France is best revised to Saint-Nazaire,  Pays de la Loire.", France, 46.16, -1.24, 1, False, False, False
Frade, Rio de Janeiro, Brazil, -21.88, -39.86, -3, False, False, False
Vancouver, British Columbia, Canada, 49.19, -122.91, -8, False, True, True
Fray Bentos, Río Negro, Uruguay, -33.11, -58.32, -3, False, False, False
Fredericia, South Denmark, Denmark, 55.55, 9.75, 1, False, True, False
Frederikshavn, North Jutland, Denmark, 57.44, 10.55, 1, False, True, False
Kalmar, Kalmar County, Sweden, 60.69, 17.22, 1, False, True, False
Henderson, Western Australia, Australia, -32.16, 115.76, 8, False, False, False
Freeport, Texas, U.S.A., 28.94, -95.34, -6, False, True, True
Freeport, Texas, U.S.A., 28.94, -95.31, -6, False, True, True
Freeport, Grand Bahama, Bahamas, 26.52, -78.78, -5, False, False, True
Freetown, Sierra Leone, Sierra Leone, 8.49, -13.23, 0, False, False, False
Fremantle, Western Australia, Australia, -32.06, 115.74, 8, False, False, False
Marseille, Provence-Alpes-Côte d'Azur, France, 43.41, 4.88, 1, False, False, False
Stockholm, Stockholm County, Sweden, 59.35, 18.13, 1, False, True, False
Froland, Västra Götaland, Sweden, 58.34, 11.9, 1, False, True, False
Fujairah, Fujairah, U.A.E., 25.18, 56.36, 4, False, False, False
Fujairah, Fujairah, U.A.E., 25.24, 56.53, 4, False, False, False
Fujairah, Fujairah, U.A.E., 25.22, 56.45, 4, False, False, False
Fujairah, Fujairah, U.A.E., 25.23, 56.42, 4, False, False, False
Fujian, Fujian, China, 25.21, 119.0, 8, False, False, False
Quanzhou, Fujian, China, 25.17, 118.99, 8, False, False, False
Fukushima, Fukushima, Japan, 33.35, 129.8, 9, False, False, False
Fukuma, Fukuoka, Japan, 33.62, 130.39, 9, False, False, False
Fukuyama, Hiroshima, Japan, 34.46, 133.45, 9, False, False, False
Funabashi, Chiba, Japan, 35.59, 140.09, 9, False, False, False
Funakawa, Akita, Japan, 39.86, 139.86, 9, False, False, False
Funchal, Madeira, Portugal, 32.64, -16.91, 0, False, False, False
Takaoka, Toyama, Japan, 36.8, 137.07, 9, False, False, False
Futtsu, Chiba, Japan, 35.34, 139.82, 9, False, False, False
Fuzhou, Fujian, China, 25.41, 119.29, 8, False, False, False
Gabes, Gabes, Tunisia, 33.92, 10.1, 1, False, False, False
Gabion, Central Kalimantan, Indonesia, 3.79, 98.7, 7, False, False, False
Gaboto, Santa Fe, Argentina, -32.43, -60.82, -3, False, False, False
Gaeta, Lazio, Italy, 41.22, 13.58, 1, False, False, False
Galena Park, Texas, U.S.A., 29.75, -95.29, -6, False, True, True
Galeota Point, Trinidad, Trinidad and Tobago, 10.09, -61.04, -4, False, False, False
Galisby, Anguilla, Anguilla, 18.01, -63.04, -4, False, False, True
Galle, Southern Province, Sri Lanka, 6.03, 80.23, 5, False, False, False
Galveston, Texas, U.S.A., 29.31, -94.79, -6, False, True, True
Galway, County Galway, Ireland, 53.27, -9.05, 0, True, False, False
Gamagori, Aichi, Japan, 34.81, 137.22, 9, False, False, False
Gamba, Ogooué-Maritime, Gabon, -2.77, 9.98, 1, False, False, False
Busan, South Korea, South Korea, 35.11, 129.06, 9, False, False, False
Gan Island, Addu Atoll, Maldives, -0.68, 73.15, 5, False, False, False
Ganchong, Guangdong, China, 19.73, 109.2, 8, False, False, False
Gangavaram, Andhra Pradesh, India, 17.62, 83.24, 5, False, False, False
Ganjingzi, Liaoning, China, 38.94, 121.66, 8, False, False, False
Gaolan, Gansu, China, 22.24, 113.58, 8, False, False, False
Garrucha, Almería, Spain, 37.18, -1.82, 1, False, False, False
Reserve, Louisiana, U.S.A., 30.06, -90.51, -6, False, True, True
Gastgivarehagen, Sweden, Sweden, 58.6, 16.22, 1, False, True, False
Gateshead, England, U.K., 54.97, -1.6, 0, False, True, False
New Orleans, Louisiana, U.S.A., 29.99, -90.4, -6, False, True, True
Thames, England, U.K., 51.47, 0.3, 0, False, True, False
Gavle, Gävleborg, Sweden, 60.68, 17.19, 1, False, True, False
Gazenica, Zadar, Croatia, 44.12, 15.22, 1, False, False, False
GBS, Germany, Germany, 54.16, 12.1, 1, False, True, False
Gdansk, Pomerania, Poland, 54.38, 18.66, 1, False, True, False
Gdynia, Pomeranian Voivodeship, Poland, 54.53, 18.54, 1, False, True, False
Osasco, São Paulo, Brazil, -23.06, -44.23, -3, False, False, False
Gebze, Kocaeli, Turkey, 40.77, 29.55, 3, False, False, False
Gedser, Zealand, Denmark, 54.57, 11.93, 1, False, True, False
Geelong, Victoria, Australia, -38.12, 144.37, 11, True, False, False
Geismar, Louisiana, U.S.A., 30.2, -91.03, -6, False, True, True
Gela, Sicily, Italy, 37.01, 14.24, 1, False, False, False
Gemikonagi, Cyprus, Cyprus, 35.15, 32.84, 2, False, False, False
Gemlik, Bursa, Turkey, 40.42, 29.12, 3, False, False, False
General Lagos, Santa Fe, Argentina, -32.95, -60.63, -3, False, False, False
Geneva, Switzerland, Switzerland, 46.2, 6.14, 1, False, False, False
Genoa, Liguria, Italy, 44.43, 8.76, 1, False, False, False
Genoa, Liguria, Italy, 44.42, 8.83, 1, False, False, False
Genoa, Liguria, Italy, 44.4, 8.82, 1, False, False, False
Genoa, Liguria, Italy, 44.42, 8.78, 1, False, False, False
George Town, Cayman Islands, Cayman Islands, 19.3, -81.39, -5, False, False, False
Georgetown, Demerara-Mahaica, Guyana, 6.81, -58.17, -4, False, False, False
Mississippi, Mississippi, U.S.A., 30.28, -91.18, -6, False, True, True
Geraldton, Western Australia, Australia, -28.77, 114.6, 8, False, False, False
Vicksburg, Mississippi, U.S.A., 29.3, -89.36, -6, False, True, True
Ghazaouet, Tlemcen, Algeria, 35.11, -1.86, 1, False, False, False
Ghent, East Flanders, Belgium, 51.11, 3.74, 1, False, True, False
Gibraltar, Gibraltar, Gibraltar, 36.13, -5.36, 1, False, False, False
Gibraltar, Gibraltar, Gibraltar, 35.92, -5.6, 0, True, False, False
Gibraltar, Gibraltar, Gibraltar, 35.95, -5.62, 1, False, False, False
Gijón, Asturias, Spain, 43.56, -5.69, 1, False, False, False
Gillingham, Kent, U.K., 51.4, 0.55, 0, False, True, False
Gimboa, Bengo, Angola, -7.54, 12.17, 1, False, False, False
Gioia Tauro, Calabria, Italy, 38.44, 15.9, 1, False, False, False
Philadelphia, Pennsylvania, U.S.A., 39.97, -75.1, -5, False, True, True
Girassol, Luanda, Angola, -7.67, 11.62, 1, False, False, False
Gisborne, Gisborne, New Zealand, -38.67, 178.02, 13, True, False, False
Gismerøy, Agder, Norway, 58.02, 7.46, 1, False, True, False
Jazan, Jazan Province, Saudi Arabia, 16.88, 42.53, 3, False, False, False
Gladstone, Queensland, Australia, -23.79, 151.18, 10, False, False, False
Gladstone, Queensland, Australia, -23.8, 151.22, 10, False, False, False
Glasgow, Scotland, U.K., 55.86, -4.3, 0, False, True, False
Glensanda, Scotland, U.K., 56.57, -5.53, 0, False, False, False
Glomfjord, Nordland, Norway, 66.81, 13.94, 1, False, False, False
Glomfjord, Nordland, Norway, 66.94, 13.47, 1, False, False, False
GNS, Saxony-Anhalt, Germany, 53.53, 8.16, 1, False, True, False
GOATC, New Jersey, Unassigned, 11.84, 45.0, 3, False, False, False
GOATC, East Bound Exit, Unassigned, 14.34, 53.0, 4, False, False, False
GOATC, Washington, Unassigned, 14.46, 53.0, 4, False, False, False
GOATC, West Bound Exit, Unassigned, 11.96, 45.0, 3, False, False, False
Sabine Pass, Texas, U.S.A., 29.77, -93.93, -6, False, True, True
Golfo Aranci, Sardinia, Italy, 40.98, 9.62, 1, False, False, False
Golfo San Matías, Río Negro, Argentina, -41.97, -65.0, -3, False, False, False
Good Hope, Georgia, U.S.A., 29.99, -90.41, -6, False, True, True
Happy Valley-Goose Bay, Newfoundland and Labrador, Canada, 53.35, -60.4, -4, False, True, True
Cherbourg, Queensland, Australia, -33.85, 151.21, 11, True, False, False
Gosport, England, U.K., 50.81, -1.11, 0, False, True, False
Gothenburg, Västra Götaland, Sweden, 57.7, 11.93, 1, False, True, False
Goto, Bonaire, Netherlands Antilles, 12.15, -68.28, -4, False, False, False
Gourock, Scotland, U.K., 56.1, -4.84, 0, False, True, False
Nhulunbuy, Northern Territory, Australia, -12.21, 136.67, 9, False, False, False
Governo Island, Amapá, Brazil, -22.82, -43.15, -3, False, False, False
Mississippi City, Mississippi, U.S.A., 29.94, -90.14, -6, False, True, True
Saint George's, Saint George, Grenada, 12.07, -61.76, -4, False, False, False
Grand Turk, Turks and Caicos Islands, Turks and Caicos Is., 21.47, -71.15, -5, False, False, False
Grangemouth, Falkirk, U.K., 56.04, -3.68, 0, False, True, False
Färjestaden, Kalmar County, Sweden, 60.68, 17.19, 1, False, True, False
Gravelines, Hauts-de-France, France, 51.03, 2.16, 1, False, True, False
Notre-Dame-de-Gravenchon, Normandy, France, 49.47, 0.54, 1, False, True, False
Gravesend, Kent, U.K., 51.47, 0.24, 0, False, True, False
Grays, England, U.K., 51.47, 0.24, 0, False, True, False
Great Barrier Reef, Queensland, Australia, -17.0, 152.32, 10, False, False, False
Great Cumbrae, North Ayrshire, U.K., 55.73, -4.89, 0, False, True, False
Great Yarmouth, Norfolk, U.K., 52.58, 1.73, 0, False, True, False
New Orleans, Louisiana, U.S.A., 29.94, -90.06, -6, False, True, True
New York, New York, U.S.A., 40.79, -73.89, -5, False, True, True
Greater Plutonio Terminal, Luanda Province, Angola, -7.83, 12.12, 1, False, False, False
Greenock, Scotland, U.K., 55.96, -4.76, 0, False, True, False
Greenore, County Louth, Ireland, 54.03, -6.13, 0, True, False, False
Houston, Texas, U.S.A., 29.75, -95.29, -6, False, True, True
Greenwich, England, U.K., 51.47, 0.24, 0, False, True, False
Greenwich, Connecticut, U.S.A., 39.97, -75.1, -5, False, True, True
Gregorio, Magallanes Region, Chile, -52.64, -70.17, -3, False, False, False
Gregory Bay, Magallanes Region, Chile, -52.64, -70.17, -3, False, False, False
Grenaa, Central Denmark, Denmark, 56.42, 10.93, 1, False, True, False
Porsgrunn, Vestfold og Telemark, Norway, 59.13, 9.61, 1, False, True, False
Gresik, East Java, Indonesia, -7.15, 112.66, 7, False, False, False
Gretna, Louisiana, U.S.A., 29.92, -90.07, -6, False, True, True
Griffin, Queensland, Australia, -21.32, 114.6, 8, False, False, False
Grimsby, England, U.K., 53.58, -0.07, 0, False, True, False
Gronnedal, Greenland, Greenland, 61.24, -48.12, -2, False, False, False
Groote Eylandt, Northern Territory, Australia, -13.86, 136.41, 9, False, False, False
Cacouna, Quebec, Canada, 47.93, -69.51, -5, False, True, True
Groton, Connecticut, U.S.A., 41.35, -72.08, -5, False, True, True
Grundartangi, Iceland, Iceland, 64.36, -21.77, 0, False, False, False
Gothenburg, Västra Götaland, Sweden, 59.34, 13.12, 1, False, False, False
Gryphon, England, U.K., 59.35, 1.59, 0, False, True, False
Huasco, Atacama, Chile, -28.46, -71.25, -3, True, False, False
Guaíba, Rio Grande do Sul, Brazil, -23.02, -44.03, -3, False, False, False
Gualeguaychú, Entre Ríos, Argentina, -33.07, -58.48, -3, False, False, False
Hagåtña, Guam, Guam, 13.46, 144.66, 10, False, False, False
Guamaré, Rio Grande do Norte, Brazil, -4.86, -36.27, -3, False, False, False
Rio de Janeiro, Rio de Janeiro, Brazil, -22.78, -43.13, -3, False, False, False
Guangdong, Guangdong, China, 22.57, 114.43, 8, False, False, False
Guanta, Anzoátegui, Venezuela, 10.24, -64.57, -4, False, False, False
Guantanamo, Guantanamo, Cuba, 19.92, -75.15, -5, False, False, False
Guaraguao, Anzoátegui, Venezuela, 10.24, -64.63, -4, False, False, False
Barcelona, Anzoátegui, Venezuela, 10.24, -64.63, -4, False, False, False
Guayacán, Coquimbo, Chile, -29.97, -71.37, -3, True, False, False
Guayama, Puerto Rico, Puerto Rico, 17.91, -66.15, -4, False, True, True
Guayanilla, Puerto Rico, Puerto Rico, 17.98, -66.76, -4, False, True, True
Guayanilla, Puerto Rico, Puerto Rico, 17.97, -66.76, -4, False, True, True
Guayaquil, Guayas, Ecuador, -2.28, -79.91, -5, False, False, False
Guaymas, Sonora, Mexico, 27.91, -110.88, -7, False, False, False
Guldborg, Region Zealand, Denmark, 54.87, 11.75, 1, False, True, False
Gulei, Fujian, China, 23.73, 117.58, 8, False, False, False
Faustina, Mississippi, U.S.A., 30.09, -90.91, -6, False, True, True
Port Lavaca, Texas, U.S.A., 28.09, -93.02, -6, False, True, True
Pascagoula, Mississippi, U.S.A., 30.32, -88.51, -6, False, True, True
Gulf of Aden Transit Corridor, Unassigned, Unassigned, 11.84, 45.0, 3, False, False, False
Gulf of Aden Transit Corridor, Unassigned, Unassigned, 14.34, 53.0, 4, False, False, False
Gulf of Aden, Unassigned, Unassigned, 14.46, 53.0, 4, False, False, False
Gulf of Aden, Unassigned, Unassigned, 11.96, 45.0, 3, False, False, False
Izmit, Kocaeli, Turkey, 40.74, 29.75, 3, False, False, False
Gulfhavn, Zealand, Denmark, 55.2, 11.24, 1, False, True, False
Gulfmex No 1, Texas, U.S.A., 28.0, -89.5, -6, False, True, True
Gulfmex No 19, Texas, U.S.A., 26.5, -86.58, -6, False, True, True
Gulfmex No 20, Texas, U.S.A., 28.5, -89.5, -6, False, True, True
Gulfport, Mississippi, U.S.A., 30.36, -89.09, -6, False, True, True
Gullfaks, Vestland, Norway, 61.16, 2.16, 0, False, True, False
Gunsan, Jeollabuk-do, South Korea, 35.99, 126.71, 9, False, False, False
Uruma, Okinawa, Japan, 26.38, 127.89, 9, False, False, False
Gwangyang, Jeollanam-do, South Korea, 34.93, 127.74, 9, False, False, False
Gwangyang, Jeollanam-do, South Korea, 34.9, 127.67, 9, False, False, False
Gwangyang, Jeollanam-do, South Korea, 34.88, 127.79, 9, False, False, False
Haakoninlahti, Finland, Finland, 60.15, 24.91, 2, False, True, False
Habas, Manisa, Turkey, 38.78, 26.92, 3, False, False, False
Hachinohe, Aomori, Japan, 40.55, 141.52, 9, False, False, False
Hadong, Gyeongsangnam-do, South Korea, 34.94, 127.83, 9, False, False, False
Haeju, South Hwanghae, North Korea, 37.99, 125.7, 9, False, False, False
Hafnarfjordur, Iceland, Iceland, 64.07, -21.97, 0, False, False, False
Hai Phong, Vietnam, Vietnam, 20.87, 106.69, 7, False, False, False
Haifa, Haifa District, Israel, 32.83, 35.03, 2, False, False, False
Haikou, Hainan, China, 20.03, 110.28, 8, False, False, False
Wanning, Hainan, China, 20.18, 110.36, 8, False, False, False
Hainan, Hainan, China, 20.21, 110.37, 8, False, False, False
Haiphong, Hai Phong, Vietnam, 20.87, 106.69, 7, False, False, False
Lianjiang, Guangdong, China, 30.59, 121.07, 8, False, False, False
Fukuoka, Fukuoka, Japan, 33.62, 130.39, 9, False, False, False
Hakodate, Hokkaido, Japan, 41.79, 140.71, 9, False, False, False
Al Mubarraz, Ras Al Khaimah, U.A.E., 24.45, 53.57, 4, False, False, False
Halden, Viken, Norway, 59.12, 11.38, 1, False, True, False
Haldia, West Bengal, India, 22.03, 88.1, 5, False, False, False
Destrehan, Louisiana, U.S.A., 29.94, -90.37, -6, False, True, True
Halifax, Nova Scotia, Canada, 44.67, -63.63, -4, False, True, True
Halifax, Nova Scotia, Canada, 44.66, -63.58, -4, False, True, True
Halifax, Nova Scotia, Canada, 44.63, -63.56, -4, False, True, True
Halifax, Nova Scotia, Canada, 44.68, -63.6, -4, False, True, True
Chalkida, Central Greece, Greece, 38.47, 23.59, 2, False, False, False
Hall-Buck Coke Terminal Dock, Mississippi, U.S.A., 30.49, -91.2, -6, False, True, True
Hallets Cove, South Australia, Australia, -35.08, 138.45, 10, True, False, False
Hallstavik, Stockholm County, Sweden, 60.06, 18.59, 1, False, True, False
Halmstad, Halland, Sweden, 56.65, 12.84, 1, False, True, False
Halul Island, Qatar, Qatar, 25.66, 52.48, 3, False, False, False
Hamble, Hampshire, U.K., 50.85, -1.33, 0, False, True, False
Hamburg, Hamburg, Germany, 53.54, 9.93, 1, False, True, False
Hamilton North, England, U.K., 53.69, -3.55, 0, False, False, False
Hamilton, Bermuda, Bermuda, 32.29, -64.78, -4, False, False, False
Hamilton, Ontario, Canada, 43.28, -79.83, -5, False, False, False
Hamina, Kymenlaakso, Finland, 60.54, 27.18, 2, False, True, False
Hammerfest, Finnmark, Norway, 70.67, 23.68, 1, False, False, False
Hammerfest, Finnmark, Norway, 70.91, 24.24, 1, False, False, False
Hammerfest, Finnmark, Norway, 70.68, 23.6, 1, False, False, False
Hampton Roads, Virginia, U.S.A., 36.97, -76.34, -5, False, True, True
Hamriyah, Sharjah, U.A.E., 25.47, 55.48, 4, False, False, False
Hamriyah, Sharjah, U.A.E., 25.58, 55.39, 4, False, False, False
Hangzhou, Zhejiang, China, 30.59, 121.07, 8, False, False, False
Hangzhou, Zhejiang, China, 30.22, 120.18, 8, False, False, False
Hanko, Uusimaa, Finland, 59.81, 22.91, 2, False, True, False
Wuhan, Hubei, China, 30.58, 114.3, 8, False, False, False
Hanstholm, North Denmark Region, Denmark, 57.12, 8.59, 1, False, True, False
Haponniemi, Finland, Finland, 60.79, 21.38, 2, False, True, False
Minamisoma, Fukushima, Japan, 37.67, 141.02, 9, False, False, False
Harbor Island, Washington, U.S.A., 27.84, -97.06, -6, False, True, True
Harding Field, England, U.K., 59.26, 1.57, 0, False, True, False
Harlem, New York, U.S.A., 29.62, -89.91, -6, False, True, True
Harlingen, Friesland, Netherlands, 53.17, 5.41, 1, False, True, False
Nanaimo, British Columbia, Canada, 49.14, -123.86, -8, False, True, True
Harstad, Troms og Finnmark, Norway, 68.8, 16.55, 1, False, False, False
Hartlepool, County Durham, U.K., 54.7, -1.19, 0, False, True, False
New Orleans, Louisiana, U.S.A., 29.91, -90.09, -6, False, True, True
Harwich, Essex, U.K., 51.95, 1.25, 0, False, True, False
Haskier Island, Scotland, U.K., 57.62, -8.11, -1, False, False, False
Hastings, Victoria, Australia, -38.31, 145.23, 11, True, False, False
Hatsukaichi, Hiroshima, Japan, 34.34, 132.36, 9, False, False, False
Hattaro, Aomori, Japan, 40.55, 141.52, 9, False, False, False
Haugesund, Rogaland, Norway, 59.42, 5.25, 1, False, True, False
Haulbowline, County Cork, Ireland, 51.9, -8.49, 0, True, False, False
Haut Indre, Pays de la Loire, France, 47.19, -1.6, 1, False, False, False
Havana, La Habana, Cuba, 23.13, -82.34, -5, False, False, True
Le Havre, Normandy, France, 49.47, 0.16, 1, False, True, False
Hay Point, Queensland, Australia, -21.26, 149.31, 10, False, False, False
Hazira, Gujarat, India, 21.15, 72.56, 5, False, False, False
Surat, Gujarat, India, 21.09, 72.62, 5, False, False, False
Healdton, Oklahoma, U.S.A., 29.13, -94.17, -6, False, True, True
Hebburn, England., U.K., 54.99, -1.45, 0, False, True, False
Hedon, East Riding of Yorkshire, U.K., 53.72, -0.25, 0, False, True, False
Heianza, "Japan does not seem to correspond to a known city or town in Japan. If you might be referring to a misnomer or a less known place,  I would suggest verifying the correct name. However,  if intended to match well-known cities,  consider ""Himeji,  Hyogo"" as an example.", Japan, 26.4, 127.97, 9, False, False, False
Changchun, Jilin, China, 38.94, 121.66, 8, False, False, False
Hekinan, Aichi, Japan, 34.89, 136.97, 9, False, False, False
Helsingborg, Skåne County, Sweden, 56.03, 12.69, 1, False, True, False
Helsingor, Capital Region, Denmark, 56.03, 12.62, 1, False, True, False
Helsinki, Uusimaa, Finland, 60.15, 24.91, 2, False, True, False
Hemnesberget, Nordland, Norway, 66.22, 13.6, 1, False, False, False
Hepokari, Finland, Finland, 60.79, 21.38, 2, False, True, False
Heraklion, Crete, Greece, 35.35, 25.15, 2, False, False, False
Hercules, California, U.S.A., 38.05, -122.16, -8, False, True, True
Hercules Dock, Mississippi, U.S.A., 30.28, -91.17, -6, False, True, True
Härnösand, Västernorrland, Sweden, 62.64, 17.94, 1, False, True, False
Porsgrunn, Vestfold og Telemark, Norway, 59.11, 9.63, 1, False, True, False
Xinhui, Guangdong, China, 39.02, 121.75, 8, False, False, False
Heshangdao, Hainan, China, 38.94, 121.66, 8, False, False, False
New London, Connecticut, U.S.A., 41.33, -72.08, -5, False, True, True
Hibi, Okayama, Japan, 34.45, 133.93, 9, False, False, False
Kitakyushu, Fukuoka, Japan, 33.95, 130.83, 9, False, False, False
Higashi-Harima, Hyogo, Japan, 34.7, 134.84, 9, False, False, False
Kawasaki, Kanagawa, Japan, 35.5, 139.75, 9, False, False, False
Shimonoseki, Yamaguchi, Japan, 33.94, 130.93, 9, False, False, False
Tampa, Florida, U.S.A., 27.92, -82.43, -5, False, True, True
Hilo, Hawaii, U.S.A., 19.73, -155.06, -10, False, True, True
Himeji, Hyogo, Japan, 34.76, 134.69, 9, False, False, False
Hiroshima, Hiroshima, Japan, 34.23, 132.54, 9, False, False, False
Hirohata, Hyogo, Japan, 34.78, 134.63, 9, False, False, False
Hiroshima, Hiroshima, Japan, 34.35, 132.49, 9, False, False, False
Hirtshals, North Denmark Region, Denmark, 57.6, 9.97, 1, False, True, False
Hitachi, Ibaraki, Japan, 36.49, 140.63, 9, False, False, False
Ho Chi Min City, Vietnam, Vietnam, 10.77, 106.71, 7, False, False, False
Hobart, Tasmania, Australia, -42.85, 147.33, 11, True, False, False
Hoboken, New Jersey, U.S.A., 40.74, -74.02, -5, False, True, True
Hodeidah, Al Hudaydah, Yemen, 14.84, 42.94, 3, False, False, False
Hoek van Holland, South Holland, Netherlands, 51.97, 4.13, 1, False, True, False
Holehaven, England, U.K., 51.5, 0.55, 0, False, True, False
Holm, Scotland, U.K., 58.9, -3.05, 0, False, True, False
Holmen, Viken, Norway, 59.74, 10.24, 1, False, True, False
Holmestrand, Vestfold og Telemark, Norway, 59.49, 10.32, 1, False, True, False
Sisimiut, Greenland, Greenland, 66.93, -53.67, -2, False, False, False
Kiel, Schleswig-Holstein, Germany, 54.36, 10.15, 1, False, True, False
Holyhead, Wales, U.K., 53.33, -4.61, 0, False, False, False
Holyrood, Newfoundland and Labrador, Canada, 47.4, -53.13, -3, False, True, True
Homsvik, Møre og Romsdal, Norway, 58.02, 7.46, 1, False, True, False
Ha Long, Quang Ninh, Vietnam, 20.95, 107.07, 7, False, False, False
Hạ Long, Quảng Ninh, Vietnam, 20.95, 107.07, 7, False, False, False
Honfleur, Normandy, France, 49.43, 0.23, 1, False, True, False
Hong Kong, Hong Kong SAR, China, 22.29, 114.17, 8, False, False, False
Shanghai, Shanghai, China, 28.17, 121.11, 8, False, False, False
Honiara, Guadalcanal Province, Solomon Islands, -9.43, 159.96, 11, False, False, False
